[{"name":"青木の杜公園","address":"静岡市葵区城東町 54","location":{"lat":34.9878522,"lng":138.3902752},"detail":{"type":"街区公園","area":3122}},{"name":"上土公園","address":"静岡市葵区東千代田二丁目 ","location":{"lat":35.0034592,"lng":138.407662},"detail":{"type":"街区公園","area":1894}},{"name":"上土塩原公園","address":"静岡市葵区上土二丁目 25-1他","location":{"lat":34.9980208,"lng":138.4093759},"detail":{"type":"街区公園","area":1668.68}},{"name":"麻機東石橋公園","address":"静岡市葵区東 201-9　外3筆","location":{"lat":35.0314945,"lng":138.3993322},"detail":{"type":"街区公園","area":3284}},{"name":"足久保牛ヶ峰公園","address":"静岡市葵区足久保口組 字八十岡2243-1外","location":{"lat":35.0450785,"lng":138.3651406},"detail":{"type":"街区公園","area":1237.48}},{"name":"足久保いのかみ公園","address":"静岡市葵区足久保口組 字井ノ上24-4","location":{"lat":35.0450785,"lng":138.3651406},"detail":{"type":"街区公園","area":1358.83}},{"name":"足久保ことり公園","address":"静岡市葵区足久保口組 303-1","location":{"lat":35.0424122,"lng":138.3626604},"detail":{"type":"街区公園","area":1009}},{"name":"足久保せせらぎ公園","address":"静岡市葵区足久保口組 280-15","location":{"lat":35.0423511,"lng":138.3636464},"detail":{"type":"街区公園","area":1426}},{"name":"足久保のぞみ公園","address":"静岡市葵区足久保口組 567-4","location":{"lat":35.0450785,"lng":138.3651406},"detail":{"type":"街区公園","area":661}},{"name":"安倍川公園","address":"静岡市葵区田町四丁目 78-1地先","location":{"lat":34.9673074,"lng":138.3686444},"detail":{"type":"近隣公園","area":21043}},{"name":"安倍川町公園","address":"静岡市葵区川越町 1-2","location":{"lat":34.9651966,"lng":138.3733663},"detail":{"type":"街区公園","area":1655}},{"name":"有永公園","address":"静岡市葵区有永 6－1","location":{"lat":35.028914,"lng":138.3910274},"detail":{"type":"街区公園","area":2148}},{"name":"安東公園","address":"静岡市葵区安東一丁目 309 外","location":{"lat":34.9844859,"lng":138.3838647},"detail":{"type":"街区公園","area":3519}},{"name":"安東２丁目公園","address":"静岡市葵区安東二丁目 115-3","location":{"lat":34.9880938,"lng":138.3827592},"detail":{"type":"街区公園","area":1412}},{"name":"池ヶ谷東公園","address":"静岡市葵区池ヶ谷東 20-30","location":{"lat":35.0067749,"lng":138.3861723},"detail":{"type":"街区公園","area":900}},{"name":"一本松公園","address":"静岡市葵区長尾 1131-158　他","location":{"lat":35.051729,"lng":138.4271626},"detail":{"type":"風致公園","area":5547}},{"name":"今宮公園","address":"静岡市葵区北 2130他","location":{"lat":35.0389222,"lng":138.3955242},"detail":{"type":"近隣公園","area":18285.7}},{"name":"牛妻公園","address":"静岡市葵区牛妻 947-34","location":{"lat":35.05458,"lng":138.3724786},"detail":{"type":"街区公園","area":849}},{"name":"内宮公園","address":"静岡市葵区内牧 字池ノ谷1824-303 外","location":{"lat":34.9751398,"lng":138.3832429},"detail":{"type":"街区公園","area":278}},{"name":"音羽公園","address":"静岡市葵区音羽町 157－1","location":{"lat":34.9785035,"lng":138.3950223},"detail":{"type":"街区公園","area":1457}},{"name":"梶原山公園","address":"静岡市葵区長尾 1134-102","location":{"lat":35.051729,"lng":138.4271626},"detail":{"type":"風致公園","area":10699}},{"name":"上伝馬公園","address":"静岡市葵区上伝馬 172-1","location":{"lat":35.0081136,"lng":138.3715264},"detail":{"type":"街区公園","area":1979}},{"name":"川合公園","address":"静岡市葵区川合二丁目 181－5","location":{"lat":35.0031318,"lng":138.4171417},"detail":{"type":"街区公園","area":1669.37}},{"name":"川合旭町公園","address":"静岡市葵区川合二丁目 122-1","location":{"lat":35.0031318,"lng":138.4171417},"detail":{"type":"街区公園","area":1667}},{"name":"川合西公園","address":"静岡市葵区川合 29-70","location":{"lat":35.0023485,"lng":138.417614},"detail":{"type":"街区公園","area":433}},{"name":"川合本田公園","address":"静岡市葵区上土一丁目 1297-1","location":{"lat":35.0020151,"lng":138.4123228},"detail":{"type":"街区公園","area":1278}},{"name":"北安東二丁目公園","address":"静岡市葵区北安東二丁目 515-18","location":{"lat":34.9978787,"lng":138.386303},"detail":{"type":"街区公園","area":438}},{"name":"北安東柳新田公園","address":"静岡市葵区北安東五丁目 1331－1","location":{"lat":34.9995897,"lng":138.3889666},"detail":{"type":"街区公園","area":1593}},{"name":"北井戸沢公園","address":"静岡市葵区北 882","location":{"lat":35.0372964,"lng":138.3949104},"detail":{"type":"街区公園","area":574.59}},{"name":"北大橋公園","address":"静岡市葵区北 403－4","location":{"lat":35.0372964,"lng":138.3949104},"detail":{"type":"街区公園","area":319}},{"name":"北五反田公園","address":"静岡市葵区北 2197－17","location":{"lat":35.0372964,"lng":138.3949104},"detail":{"type":"街区公園","area":443}},{"name":"北才光寺公園","address":"静岡市葵区北 1658－1","location":{"lat":35.0372964,"lng":138.3949104},"detail":{"type":"街区公園","area":3858}},{"name":"北大門公園","address":"静岡市葵区北 521-10","location":{"lat":35.0372964,"lng":138.3949104},"detail":{"type":"街区公園","area":5145}},{"name":"北滝ノ谷公園","address":"静岡市葵区北 1119－22","location":{"lat":35.0372964,"lng":138.3949104},"detail":{"type":"街区公園","area":160}},{"name":"北道谷津公園","address":"静岡市葵区北 1765-201","location":{"lat":35.0372964,"lng":138.3949104},"detail":{"type":"街区公園","area":857}},{"name":"北番町公園","address":"静岡市葵区北番町 78番地の2","location":{"lat":34.9796754,"lng":138.3697328},"detail":{"type":"街区公園","area":1784}},{"name":"清水山公園","address":"静岡市葵区音羽町 1-2．瓦場町114他","location":{"lat":34.9785035,"lng":138.3950223},"detail":{"type":"近隣公園","area":25437}},{"name":"沓谷第一公園","address":"静岡市葵区沓谷六丁目 4","location":{"lat":34.9945354,"lng":138.4100121},"detail":{"type":"街区公園","area":3538}},{"name":"沓谷東公園","address":"静岡市葵区沓谷六丁目 23","location":{"lat":34.9945354,"lng":138.4100121},"detail":{"type":"街区公園","area":3805}},{"name":"駒形第二公園","address":"静岡市葵区駒形通四丁目 12-1","location":{"lat":34.9656826,"lng":138.3766937},"detail":{"type":"街区公園","area":3361}},{"name":"さくら公園","address":"静岡市葵区足久保口組 151-161","location":{"lat":35.0450812,"lng":138.3632686},"detail":{"type":"街区公園","area":628}},{"name":"しずなか桜公園","address":"静岡市葵区牛妻 ","location":{"lat":35.0550799,"lng":138.3722647},"detail":{"type":"街区公園","area":0}},{"name":"賤機山公園","address":"静岡市葵区井宮町 256-3","location":{"lat":34.9865051,"lng":138.3718769},"detail":{"type":"近隣公園","area":22575}},{"name":"城東公園","address":"静岡市葵区城東町 11","location":{"lat":34.9846776,"lng":138.3890337},"detail":{"type":"街区公園","area":1634}},{"name":"菖蒲公園","address":"静岡市葵区昭府二丁目 1011","location":{"lat":35.0018533,"lng":138.3713042},"detail":{"type":"街区公園","area":2694.56}},{"name":"菖蒲南公園","address":"静岡市葵区昭府一丁目 864","location":{"lat":34.9988814,"lng":138.3713849},"detail":{"type":"街区公園","area":565}},{"name":"城北公園","address":"静岡市葵区大岩本町 29","location":{"lat":34.9884215,"lng":138.3786207},"detail":{"type":"地区公園","area":61317}},{"name":"新通公園","address":"静岡市葵区駒形通二丁目 6の9","location":{"lat":34.9684767,"lng":138.3772797},"detail":{"type":"街区公園","area":4320}},{"name":"新富公園","address":"静岡市葵区新富町一丁目 82-2","location":{"lat":34.9746676,"lng":138.3681831},"detail":{"type":"街区公園","area":2702}},{"name":"新間公園","address":"静岡市葵区新間 1234-13","location":{"lat":34.9927141,"lng":138.3093169},"detail":{"type":"街区公園","area":419}},{"name":"新幕公園","address":"静岡市葵区瀬名六丁目 4066（竜爪中学校東側）","location":{"lat":35.0136084,"lng":138.4202331},"detail":{"type":"街区公園","area":3120}},{"name":"住吉公園","address":"静岡市葵区住吉町二丁目 53番地","location":{"lat":34.9766841,"lng":138.372816},"detail":{"type":"街区公園","area":3504}},{"name":"駿府城公園","address":"静岡市葵区駿府城公園 1番1号","location":{"lat":34.9807586,"lng":138.3817873},"detail":{"type":"総合公園","area":180940}},{"name":"瀬名内坪公園","address":"静岡市葵区南瀬名町 76-40","location":{"lat":35.0045901,"lng":138.4223691},"detail":{"type":"街区公園","area":675}},{"name":"瀬名川公園","address":"静岡市葵区瀬名川二丁目 24","location":{"lat":35.0067289,"lng":138.4287076},"detail":{"type":"街区公園","area":2586}},{"name":"瀬名川西公園","address":"静岡市葵区瀬名川一丁目 8","location":{"lat":35.0023793,"lng":138.4241551},"detail":{"type":"街区公園","area":1703}},{"name":"瀬名川南公園","address":"静岡市葵区瀬名川二丁目 ７","location":{"lat":35.0031405,"lng":138.4292548},"detail":{"type":"街区公園","area":2415}},{"name":"瀬名第一公園","address":"静岡市葵区瀬名一丁目 ４","location":{"lat":35.0120335,"lng":138.4194693},"detail":{"type":"街区公園","area":1387}},{"name":"瀬名第二公園","address":"静岡市葵区瀬名中央三丁目 19","location":{"lat":35.010331,"lng":138.4199915},"detail":{"type":"街区公園","area":1012}},{"name":"瀬名茶ノ木田公園","address":"静岡市葵区瀬名 837","location":{"lat":35.0136084,"lng":138.4202331},"detail":{"type":"街区公園","area":1040}},{"name":"鷹匠公園","address":"静岡市葵区鷹匠三丁目 15","location":{"lat":34.9799921,"lng":138.390206},"detail":{"type":"街区公園","area":7506}},{"name":"建穂みどり公園","address":"静岡市葵区建穂 746-1","location":{"lat":34.98538550000001,"lng":138.3437242},"detail":{"type":"街区公園","area":2977}},{"name":"田町公園","address":"静岡市葵区田町三丁目 46－5外","location":{"lat":34.9715819,"lng":138.3656584},"detail":{"type":"街区公園","area":10896}},{"name":"田町北公園","address":"静岡市葵区田町二丁目 93－2","location":{"lat":34.9734483,"lng":138.3663555},"detail":{"type":"街区公園","area":1539}},{"name":"田町南公園","address":"静岡市葵区田町五丁目 11-1","location":{"lat":34.9938334,"lng":138.403634},"detail":{"type":"街区公園","area":937.49}},{"name":"伝馬公園","address":"静岡市葵区伝馬町 14の1","location":{"lat":34.9756426,"lng":138.389459},"detail":{"type":"街区公園","area":5054}},{"name":"伝馬町新田村横公園","address":"静岡市葵区新伝馬三丁目 335-1","location":{"lat":35.0006006,"lng":138.3661797},"detail":{"type":"街区公園","area":1296}},{"name":"通車公園","address":"静岡市葵区通車町 5-1　本通り７丁目7-1","location":{"lat":34.9718041,"lng":138.3740493},"detail":{"type":"街区公園","area":3337}},{"name":"常磐公園","address":"静岡市葵区常磐町三丁目 3の1","location":{"lat":34.9699404,"lng":138.3814821},"detail":{"type":"近隣公園","area":12060}},{"name":"長沼公園","address":"静岡市葵区長沼二丁目 16","location":{"lat":34.9927218,"lng":138.4144534},"detail":{"type":"街区公園","area":1732}},{"name":"西草深公園","address":"静岡市葵区西草深町 27番9号","location":{"lat":34.9832138,"lng":138.3769099},"detail":{"type":"街区公園","area":5056}},{"name":"羽高公園","address":"静岡市葵区羽高 228-1　他","location":{"lat":35.03588,"lng":138.3926782},"detail":{"type":"街区公園","area":2203.47}},{"name":"羽鳥的場公園","address":"静岡市葵区羽鳥六丁目 1370-10","location":{"lat":34.9843326,"lng":138.3358697},"detail":{"type":"街区公園","area":185}},{"name":"羽鳥公園","address":"静岡市葵区羽鳥 1131－31","location":{"lat":34.9827997,"lng":138.3434077},"detail":{"type":"街区公園","area":1158}},{"name":"羽鳥大門公園","address":"静岡市葵区羽鳥大門町 626-15","location":{"lat":34.9761951,"lng":138.3500515},"detail":{"type":"街区公園","area":205}},{"name":"羽鳥柳坪公園","address":"静岡市葵区羽鳥四丁目 1020-2","location":{"lat":34.9829691,"lng":138.342605},"detail":{"type":"街区公園","area":1646}},{"name":"原田公園","address":"静岡市葵区足久保口組 529-18","location":{"lat":35.0435509,"lng":138.3627325},"detail":{"type":"街区公園","area":405}},{"name":"番町公園","address":"静岡市葵区三番町 2－6","location":{"lat":34.9734817,"lng":138.3738771},"detail":{"type":"街区公園","area":1978}},{"name":"東内坪公園","address":"静岡市葵区東 222-56","location":{"lat":35.0314945,"lng":138.3993322},"detail":{"type":"街区公園","area":532}},{"name":"東静岡スマイル公園","address":"静岡市葵区長沼 663-1","location":{"lat":34.9932218,"lng":138.4162171},"detail":{"type":"街区公園","area":3500.03}},{"name":"平山火の見やぐら公園","address":"静岡市葵区平山 380-1","location":{"lat":35.0605611,"lng":138.4224489},"detail":{"type":"街区公園","area":1255}},{"name":"富厚里公園","address":"静岡市葵区富厚里 877-48","location":{"lat":35.0051671,"lng":138.2740431},"detail":{"type":"街区公園","area":1462}},{"name":"古庄公園","address":"静岡市葵区古庄二丁目 5","location":{"lat":34.9981964,"lng":138.4240608},"detail":{"type":"街区公園","area":2400}},{"name":"古庄川合公園","address":"静岡市葵区古庄812-1","location":{"lat":34.997924,"lng":138.4163836},"detail":{"type":"街区公園","area":3162}},{"name":"古庄東公園","address":"静岡市葵区古庄六丁目 822-18 外","location":{"lat":34.9977104,"lng":138.4162689},"detail":{"type":"街区公園","area":289}},{"name":"古庄南公園","address":"静岡市葵区古庄一丁目 32-66","location":{"lat":34.991711,"lng":138.4209834},"detail":{"type":"街区公園","area":250}},{"name":"平和一丁目公園","address":"静岡市葵区平和一丁目 3","location":{"lat":34.9883243,"lng":138.3648497},"detail":{"type":"街区公園","area":2012}},{"name":"平和町公園","address":"静岡市葵区平和一丁目 3","location":{"lat":34.9883243,"lng":138.3648497},"detail":{"type":"街区公園","area":122}},{"name":"平和二丁目公園","address":"静岡市葵区平和二丁目 516-4地先","location":{"lat":34.9751398,"lng":138.3832429},"detail":{"type":"街区公園","area":996}},{"name":"牧ヶ谷北公園","address":"静岡市葵区牧ヶ谷 2175","location":{"lat":34.9721788,"lng":138.3482713},"detail":{"type":"街区公園","area":5476}},{"name":"牧ヶ谷第一公園","address":"静岡市葵区牧ヶ谷 2045","location":{"lat":34.9721788,"lng":138.3482713},"detail":{"type":"街区公園","area":2499.16}},{"name":"牧ヶ谷東公園","address":"静岡市葵区牧ヶ谷 2309","location":{"lat":34.9721788,"lng":138.3482713},"detail":{"type":"街区公園","area":2317}},{"name":"牧ヶ谷南公園","address":"静岡市葵区牧ヶ谷 2473","location":{"lat":34.9721788,"lng":138.3482713},"detail":{"type":"街区公園","area":1918}},{"name":"牧ヶ谷湧水公園","address":"静岡市葵区牧ヶ谷 2454","location":{"lat":34.9721788,"lng":138.3482713},"detail":{"type":"街区公園","area":296}},{"name":"松下公園","address":"静岡市葵区南沼上 174-10","location":{"lat":35.0089252,"lng":138.4067177},"detail":{"type":"街区公園","area":357}},{"name":"松富公園","address":"静岡市葵区松富上組 46－164","location":{"lat":35.019515,"lng":138.3733957},"detail":{"type":"街区公園","area":435}},{"name":"松富なかよし公園","address":"静岡市葵区松富三丁目 662-1","location":{"lat":35.0140657,"lng":138.3755899},"detail":{"type":"街区公園","area":1568}},{"name":"松森公園","address":"静岡市葵区遠藤新田 300－149","location":{"lat":35.0268364,"lng":138.3641215},"detail":{"type":"街区公園","area":300}},{"name":"水落公園","address":"静岡市葵区水落町 58－10","location":{"lat":34.9824973,"lng":138.3871701},"detail":{"type":"街区公園","area":661}},{"name":"南沼上公園","address":"静岡市葵区瀬名四丁目 1973-1","location":{"lat":35.0222045,"lng":138.4178945},"detail":{"type":"街区公園","area":2419}},{"name":"南沼上大花公園","address":"静岡市葵区南沼上 163－1","location":{"lat":35.0089252,"lng":138.4067177},"detail":{"type":"街区公園","area":200}},{"name":"南沼上北ノ谷公園","address":"静岡市葵区南沼上 741-23","location":{"lat":35.0089252,"lng":138.4067177},"detail":{"type":"街区公園","area":219}},{"name":"南沼上光が丘公園","address":"静岡市葵区南沼上 字無生ヶ谷1535-32","location":{"lat":35.0089252,"lng":138.4067177},"detail":{"type":"街区公園","area":1197}},{"name":"美原公園","address":"静岡市葵区足久保口組 818-73","location":{"lat":35.0438869,"lng":138.360055},"detail":{"type":"街区公園","area":287}},{"name":"諸川公園","address":"静岡市葵区足久保口組 2810－16","location":{"lat":35.0449922,"lng":138.3522251},"detail":{"type":"街区公園","area":235}},{"name":"谷口北公園","address":"静岡市葵区足久保口組 3276－139","location":{"lat":35.0470754,"lng":138.3670459},"detail":{"type":"街区公園","area":1472}},{"name":"谷口南公園","address":"静岡市葵区足久保口組 3276－79","location":{"lat":35.0470754,"lng":138.3670459},"detail":{"type":"街区公園","area":890}},{"name":"谷津公園","address":"静岡市葵区谷津 559-42","location":{"lat":34.9931885,"lng":138.2919799},"detail":{"type":"街区公園","area":430}},{"name":"谷津山自然公園","address":"静岡市葵区沓谷","location":{"lat":34.9872054,"lng":138.4012603},"detail":{"type":"風致公園","area":27073}},{"name":"柳町公園","address":"静岡市葵区柳町 193-4","location":{"lat":34.9794143,"lng":138.3633945},"detail":{"type":"街区公園","area":1500}},{"name":"柳町葵公園","address":"静岡市葵区柳町 143-10","location":{"lat":34.9808475,"lng":138.3641361},"detail":{"type":"街区公園","area":121}},{"name":"柳町もみじ公園","address":"静岡市葵区柳町 16-73","location":{"lat":34.9820918,"lng":138.3649554},"detail":{"type":"街区公園","area":140}},{"name":"山崎第一公園","address":"静岡市葵区山崎一丁目 107","location":{"lat":34.9766757,"lng":138.3537427},"detail":{"type":"街区公園","area":2543}},{"name":"山崎第二公園","address":"静岡市葵区山崎二丁目 132","location":{"lat":34.9778506,"lng":138.3546787},"detail":{"type":"街区公園","area":2134}},{"name":"雪平公園","address":"静岡市葵区瀬名六丁目 41","location":{"lat":35.0342311,"lng":138.4285546},"detail":{"type":"街区公園","area":2600}},{"name":"柚木公園","address":"静岡市葵区柚木 250－2","location":{"lat":34.9852364,"lng":138.4080903},"detail":{"type":"近隣公園","area":24161}},{"name":"与一村下公園","address":"静岡市葵区与一五丁目 188","location":{"lat":35.0125825,"lng":138.3564194},"detail":{"type":"街区公園","area":1647}},{"name":"竜爪ふれあい公園","address":"静岡市葵区瀬名七丁目 5729","location":{"lat":35.0322924,"lng":138.4247966},"detail":{"type":"街区公園","area":2590}},{"name":"竜南公園","address":"静岡市葵区瀬名七丁目 8","location":{"lat":35.0314258,"lng":138.4231995},"detail":{"type":"街区公園","area":810}},{"name":"竜南雨坪公園","address":"静岡市葵区竜南三丁目 162","location":{"lat":34.9993845,"lng":138.4009794},"detail":{"type":"街区公園","area":4289}},{"name":"若松町公園","address":"静岡市葵区若松町 95－2","location":{"lat":34.9822362,"lng":138.3662747},"detail":{"type":"街区公園","area":695}},{"name":"若松町きんもくせい公園","address":"静岡市葵区若松町 107-2","location":{"lat":34.9829639,"lng":138.3651165},"detail":{"type":"街区公園","area":407}},{"name":"若松町南公園","address":"静岡市葵区若松町 16-10","location":{"lat":34.9797559,"lng":138.3674358},"detail":{"type":"街区公園","area":1430}},{"name":"大浜公園","address":"静岡市駿河区西島 1380","location":{"lat":34.9403163,"lng":138.4086111},"detail":{"type":"近隣公園","area":31880}},{"name":"用宗公園","address":"静岡市駿河区用宗五丁目 1915他","location":{"lat":34.9267781,"lng":138.3644023},"detail":{"type":"街区公園","area":4586}},{"name":"森下公園","address":"静岡市駿河区八幡二丁目 16","location":{"lat":34.9723071,"lng":138.3965779},"detail":{"type":"近隣公園","area":12366}},{"name":"登呂公園","address":"静岡市駿河区登呂五丁目 457-1他","location":{"lat":34.9563157,"lng":138.4060223},"detail":{"type":"歴史公園","area":58020}},{"name":"小鹿公園","address":"静岡市駿河区小鹿 930－4","location":{"lat":34.9719218,"lng":138.4275334},"detail":{"type":"近隣公園","area":14789}},{"name":"八幡本町公園","address":"静岡市駿河区八幡四丁目 9－13","location":{"lat":34.9682687,"lng":138.3981084},"detail":{"type":"街区公園","area":875}},{"name":"大明公園","address":"静岡市駿河区広野三丁目 464","location":{"lat":34.9314171,"lng":138.3706063},"detail":{"type":"街区公園","area":1842}},{"name":"下島公園","address":"静岡市駿河区下島 590番地他2筆","location":{"lat":34.9466795,"lng":138.4079443},"detail":{"type":"街区公園","area":2850}},{"name":"池田山自然公園","address":"静岡市駿河区池田 1562-4","location":{"lat":34.9838953,"lng":138.4213392},"detail":{"type":"総合公園","area":406154}},{"name":"日垣公園","address":"静岡市駿河区丸子二丁目 132-88","location":{"lat":34.9437436,"lng":138.3568517},"detail":{"type":"街区公園","area":949}},{"name":"広野公園","address":"静岡市駿河区広野二丁目 81","location":{"lat":34.932467,"lng":138.3668567},"detail":{"type":"街区公園","area":8180}},{"name":"聖一色公園","address":"静岡市駿河区聖一色 536-2 外","location":{"lat":34.9864757,"lng":138.4289941},"detail":{"type":"街区公園","area":1583}},{"name":"八幡山公園","address":"静岡市駿河区八幡山 7","location":{"lat":34.9696603,"lng":138.4009914},"detail":{"type":"地区公園","area":64075}},{"name":"みずほ公園","address":"静岡市駿河区みずほ五丁目 12－1","location":{"lat":34.9386414,"lng":138.3656761},"detail":{"type":"近隣公園","area":9285}},{"name":"汐入公園","address":"静岡市駿河区用宗一丁目 17","location":{"lat":34.9265898,"lng":138.3636014},"detail":{"type":"街区公園","area":3589}},{"name":"下川原公園","address":"静岡市駿河区下川原六丁目 24－6","location":{"lat":34.9328614,"lng":138.3772419},"detail":{"type":"近隣公園","area":11005}},{"name":"丸子尻高公園","address":"静岡市駿河区丸子三丁目 682－4","location":{"lat":34.9468042,"lng":138.3517355},"detail":{"type":"街区公園","area":2463}},{"name":"池田嶋崎公園","address":"静岡市駿河区池田 819","location":{"lat":34.9784016,"lng":138.4245641},"detail":{"type":"街区公園","area":4958}},{"name":"塩田公園","address":"静岡市駿河区下島 615-56","location":{"lat":34.9433049,"lng":138.4093776},"detail":{"type":"街区公園","area":672}},{"name":"松風公園","address":"静岡市駿河区下島 615－193","location":{"lat":34.9433049,"lng":138.4093776},"detail":{"type":"街区公園","area":477}},{"name":"江戸割公園","address":"静岡市駿河区中島 705-14","location":{"lat":34.9426743,"lng":138.3958455},"detail":{"type":"街区公園","area":232}},{"name":"向島公園","address":"静岡市駿河区桃園町 19－4","location":{"lat":34.9298746,"lng":138.376658},"detail":{"type":"街区公園","area":2000}},{"name":"駿河台公園","address":"静岡市駿河区大谷 3800－256","location":{"lat":34.9564926,"lng":138.4332749},"detail":{"type":"街区公園","area":2032}},{"name":"駿河台北公園","address":"静岡市駿河区大谷 3800－19","location":{"lat":34.9564926,"lng":138.4332749},"detail":{"type":"街区公園","area":1613}},{"name":"浜川公園","address":"静岡市駿河区下島 615-228","location":{"lat":34.9433049,"lng":138.4093776},"detail":{"type":"街区公園","area":700}},{"name":"弥生公園","address":"静岡市駿河区弥生町 地先","location":{"lat":35.0031045,"lng":138.4358766},"detail":{"type":"街区公園","area":1302}},{"name":"大石公園","address":"静岡市駿河区馬渕三丁目 11－15","location":{"lat":34.9624608,"lng":138.3897454},"detail":{"type":"街区公園","area":825}},{"name":"池田公園","address":"静岡市駿河区池田 605","location":{"lat":34.9838953,"lng":138.4213392},"detail":{"type":"街区公園","area":7638}},{"name":"南安倍公園","address":"静岡市駿河区南安倍三丁目 556","location":{"lat":34.95950000000001,"lng":138.376319},"detail":{"type":"街区公園","area":1982}},{"name":"広野北公園","address":"静岡市駿河区広野一丁目 8－1","location":{"lat":34.9340863,"lng":138.3689703},"detail":{"type":"街区公園","area":1958}},{"name":"露島公園","address":"静岡市駿河区下川原三丁目 30","location":{"lat":34.935089,"lng":138.3722311},"detail":{"type":"街区公園","area":1434}},{"name":"有明公園","address":"静岡市駿河区有明町 10","location":{"lat":34.9654915,"lng":138.4087047},"detail":{"type":"街区公園","area":1289}},{"name":"みずほなかよし公園","address":"静岡市駿河区みずほ一丁目 8－1","location":{"lat":34.9425132,"lng":138.3677841},"detail":{"type":"街区公園","area":4011}},{"name":"高松咲花公園","address":"静岡市駿河区敷地一丁目 284","location":{"lat":34.9532261,"lng":138.4118021},"detail":{"type":"街区公園","area":2200}},{"name":"大島公園","address":"静岡市駿河区下川原三丁目 17-1","location":{"lat":34.9376304,"lng":138.3721422},"detail":{"type":"街区公園","area":1499}},{"name":"赤目ヶ谷公園","address":"静岡市駿河区丸子 6271－42","location":{"lat":34.9412817,"lng":138.3182527},"detail":{"type":"街区公園","area":391}},{"name":"高松若宮公園","address":"静岡市駿河区高松一丁目 217","location":{"lat":34.9561009,"lng":138.417707},"detail":{"type":"街区公園","area":2205}},{"name":"下川原天満宮公園","address":"静岡市駿河区下川原二丁目 131-1","location":{"lat":34.9391747,"lng":138.3755585},"detail":{"type":"街区公園","area":2247}},{"name":"戸斗前公園","address":"静岡市駿河区北丸子二丁目 1402-5","location":{"lat":34.9502953,"lng":138.3462193},"detail":{"type":"街区公園","area":1450}},{"name":"下川原北公園","address":"静岡市駿河区下川原三丁目 3-2","location":{"lat":34.9388775,"lng":138.3726977},"detail":{"type":"街区公園","area":612}},{"name":"緑ヶ丘（駿河区）公園","address":"静岡市駿河区緑が丘町 1253－3","location":{"lat":34.9554033,"lng":138.3808937},"detail":{"type":"街区公園","area":726}},{"name":"中原えびす公園","address":"静岡市駿河区中原 531-17","location":{"lat":34.9548145,"lng":138.3901706},"detail":{"type":"街区公園","area":344}},{"name":"大鈩公園","address":"静岡市駿河区丸子 5599","location":{"lat":34.9431075,"lng":138.3525077},"detail":{"type":"街区公園","area":307}},{"name":"広野海浜公園","address":"静岡市駿河区広野五丁目 436","location":{"lat":34.9260704,"lng":138.3728729},"detail":{"type":"風致公園","area":7855}},{"name":"高松神明原公園","address":"静岡市駿河区高松二丁目 315","location":{"lat":34.9518736,"lng":138.4228678},"detail":{"type":"街区公園","area":3605}},{"name":"東新田大割公園","address":"静岡市駿河区東新田三丁目 ３０","location":{"lat":34.9444963,"lng":138.3732419},"detail":{"type":"街区公園","area":2680}},{"name":"仁平島公園","address":"静岡市駿河区下川原一丁目 10","location":{"lat":34.94088,"lng":138.3796248},"detail":{"type":"街区公園","area":1463}},{"name":"東新田瀬戸公園","address":"静岡市駿河区東新田二丁目 9","location":{"lat":34.9477014,"lng":138.3741612},"detail":{"type":"街区公園","area":1650}},{"name":"高松公園","address":"静岡市駿河区宮竹一丁目 6","location":{"lat":34.9537872,"lng":138.4158572},"detail":{"type":"近隣公園","area":19000}},{"name":"新川公園","address":"静岡市駿河区新川二丁目 13","location":{"lat":34.9610665,"lng":138.3845626},"detail":{"type":"近隣公園","area":3320.05}},{"name":"東新田須賀公園","address":"静岡市駿河区東新田一丁目 267－9","location":{"lat":34.9517565,"lng":138.3695615},"detail":{"type":"街区公園","area":1000}},{"name":"高松汐入公園","address":"静岡市駿河区敷地二丁目 173","location":{"lat":34.9489877,"lng":138.4152574},"detail":{"type":"街区公園","area":2303}},{"name":"下川原光陽公園","address":"静岡市駿河区光陽町 42","location":{"lat":34.9410661,"lng":138.3728587},"detail":{"type":"街区公園","area":1253}},{"name":"下川原東公園","address":"静岡市駿河区下川原四丁目 115","location":{"lat":34.9377026,"lng":138.3810886},"detail":{"type":"街区公園","area":5837}},{"name":"池田宮上坪公園","address":"静岡市駿河区池田 2283－2","location":{"lat":34.98561189999999,"lng":138.4325522},"detail":{"type":"街区公園","area":241}},{"name":"谷田公園","address":"静岡市駿河区谷田 816-6","location":{"lat":34.9938861,"lng":138.4377711},"detail":{"type":"街区公園","area":402}},{"name":"さつき公園","address":"静岡市駿河区さつき町 1-3","location":{"lat":34.9754956,"lng":138.3971499},"detail":{"type":"街区公園","area":1986}},{"name":"広野東公園","address":"静岡市駿河区広野六丁目 610","location":{"lat":34.928834,"lng":138.3732228},"detail":{"type":"街区公園","area":2529}},{"name":"戸斗ノ谷公園","address":"静岡市駿河区北丸子二丁目 31","location":{"lat":34.9516284,"lng":138.3430279},"detail":{"type":"街区公園","area":200}},{"name":"東新田公園","address":"静岡市駿河区東新田四丁目 924","location":{"lat":34.9428187,"lng":138.374278},"detail":{"type":"近隣公園","area":17802}},{"name":"寺田鎌田第2公園","address":"静岡市駿河区鎌田 531","location":{"lat":34.9442046,"lng":138.3598903},"detail":{"type":"街区公園","area":2653}},{"name":"寿公園","address":"静岡市駿河区寿町 212－1","location":{"lat":34.9640384,"lng":138.3793324},"detail":{"type":"街区公園","area":1144}},{"name":"片山公園","address":"静岡市駿河区大谷 839","location":{"lat":34.9563454,"lng":138.431164},"detail":{"type":"街区公園","area":4679}},{"name":"北原公園","address":"静岡市駿河区小鹿 1561-6","location":{"lat":34.9753714,"lng":138.4300276},"detail":{"type":"街区公園","area":314}},{"name":"寺田鎌田第1公園","address":"静岡市駿河区寺田 196－3","location":{"lat":34.9384637,"lng":138.3607377},"detail":{"type":"街区公園","area":2147}},{"name":"小鹿第二公園","address":"静岡市駿河区小鹿 884-63","location":{"lat":34.9724773,"lng":138.4295194},"detail":{"type":"街区公園","area":246}},{"name":"向敷地公園","address":"静岡市駿河区向敷地 894-12","location":{"lat":34.9613692,"lng":138.3598954},"detail":{"type":"街区公園","area":505}},{"name":"久能天羽衣公園","address":"静岡市駿河区中平松 173－1","location":{"lat":34.9538429,"lng":138.4447432},"detail":{"type":"街区公園","area":1487}},{"name":"中島上公園","address":"静岡市駿河区中島 430－6","location":{"lat":34.9446991,"lng":138.3945872},"detail":{"type":"街区公園","area":983}},{"name":"登呂一丁目西公園","address":"静岡市駿河区登呂一丁目 3128－23","location":{"lat":34.96149200000001,"lng":138.412074},"detail":{"type":"街区公園","area":466}},{"name":"小鹿塚田公園","address":"静岡市駿河区小鹿二丁目 108－76","location":{"lat":34.9738965,"lng":138.4217922},"detail":{"type":"街区公園","area":748}},{"name":"井庄公園","address":"静岡市駿河区大谷 4113地先","location":{"lat":34.9563454,"lng":138.431164},"detail":{"type":"街区公園","area":1760}},{"name":"手越原公園","address":"静岡市駿河区手越原 206","location":{"lat":34.9487541,"lng":138.361079},"detail":{"type":"街区公園","area":480.09}},{"name":"大谷不動山公園","address":"静岡市駿河区大谷 2783-7　他","location":{"lat":34.9582916,"lng":138.4280486},"detail":{"type":"近隣公園","area":9053.33}},{"name":"丸子どうげん原公園","address":"静岡市駿河区丸子 3030-4 外3筆","location":{"lat":34.94892840000001,"lng":138.3324263},"detail":{"type":"街区公園","area":192}},{"name":"中原桔梗公園","address":"静岡市駿河区中原 495-1","location":{"lat":34.9546506,"lng":138.385846},"detail":{"type":"街区公園","area":3185}},{"name":"大坪町公園","address":"静岡市駿河区大坪町 256-1","location":{"lat":34.9649329,"lng":138.396442},"detail":{"type":"街区公園","area":1739}},{"name":"久能八幡公園","address":"静岡市駿河区古宿 16","location":{"lat":34.9563565,"lng":138.4525618},"detail":{"type":"街区公園","area":391}},{"name":"安居公園","address":"静岡市駿河区安居 211-1","location":{"lat":34.9590259,"lng":138.4613306},"detail":{"type":"街区公園","area":1075}},{"name":"中吉田公園","address":"静岡市駿河区中吉田 9","location":{"lat":35.0012963,"lng":138.4308547},"detail":{"type":"街区公園","area":4976}},{"name":"高松長寿公園","address":"静岡市駿河区高松 1939","location":{"lat":34.95625649999999,"lng":138.4177014},"detail":{"type":"街区公園","area":330}},{"name":"谷田宮の後公園","address":"静岡市駿河区谷田 26","location":{"lat":34.9948972,"lng":138.439096},"detail":{"type":"街区公園","area":7180}},{"name":"井庄段公園","address":"静岡市駿河区大谷 3887-2","location":{"lat":34.9563454,"lng":138.431164},"detail":{"type":"街区公園","area":474}},{"name":"大谷洋光台北公園","address":"静岡市駿河区大谷 2984-3","location":{"lat":34.9540984,"lng":138.4332916},"detail":{"type":"街区公園","area":2506}},{"name":"大谷洋光台東公園","address":"静岡市駿河区大谷 3163-12","location":{"lat":34.9563454,"lng":138.431164},"detail":{"type":"街区公園","area":709}},{"name":"中島公園","address":"静岡市駿河区中島 3241","location":{"lat":34.9420383,"lng":138.3961121},"detail":{"type":"街区公園","area":2388}},{"name":"大谷洋光台西公園","address":"静岡市駿河区大谷 2787-8","location":{"lat":34.9524569,"lng":138.4304253},"detail":{"type":"街区公園","area":957}},{"name":"国吉田公園","address":"静岡市駿河区国吉田五丁目 156番地","location":{"lat":34.9908669,"lng":138.4339131},"detail":{"type":"街区公園","area":1867}},{"name":"宮西公園","address":"静岡市駿河区上川原 12","location":{"lat":34.9487652,"lng":138.3641454},"detail":{"type":"街区公園","area":2400}},{"name":"中田本町なかよし公園","address":"静岡市駿河区中田本町 920-23","location":{"lat":34.9578337,"lng":138.3945146},"detail":{"type":"街区公園","area":103.99}},{"name":"高松南公園","address":"静岡市駿河区高松 3074","location":{"lat":34.95625649999999,"lng":138.4177014},"detail":{"type":"街区公園","area":3393.6}},{"name":"富士見台ふれあい公園","address":"静岡市駿河区富士見台一丁目 169-41","location":{"lat":34.9634863,"lng":138.4147015},"detail":{"type":"街区公園","area":662.11}},{"name":"谷田なかよし公園","address":"静岡市駿河区谷田 787-80","location":{"lat":34.9938861,"lng":138.4377711},"detail":{"type":"街区公園","area":157.3}},{"name":"有度山総合（小鹿の森含む）公園","address":"静岡市駿河区小鹿 1883-4　外","location":{"lat":34.9767266,"lng":138.4184202},"detail":{"type":"総合公園","area":139635}},{"name":"浜久保公園","address":"静岡市駿河区高松 3387","location":{"lat":34.95625649999999,"lng":138.4177014},"detail":{"type":"街区公園","area":828}},{"name":"中原西公園","address":"静岡市駿河区中原 720－35","location":{"lat":34.9544673,"lng":138.3860293},"detail":{"type":"街区公園","area":151}},{"name":"下川原南公園","address":"静岡市駿河区下川原南 241","location":{"lat":34.9328781,"lng":138.3829441},"detail":{"type":"街区公園","area":7396}},{"name":"下島北公園","address":"静岡市駿河区下島 字上舟原172 外","location":{"lat":34.9466795,"lng":138.4079443},"detail":{"type":"街区公園","area":2302}},{"name":"国吉田六丁目公園","address":"静岡市駿河区国吉田六丁目 1399-59","location":{"lat":34.9879145,"lng":138.4381906},"detail":{"type":"街区公園","area":152}},{"name":"八幡遺跡公園","address":"静岡市駿河区八幡五丁目 13-42","location":{"lat":34.9667606,"lng":138.4017192},"detail":{"type":"街区公園","area":167}},{"name":"曲金ふれあい公園","address":"静岡市駿河区曲金六丁目 275‐1","location":{"lat":34.9803954,"lng":138.4102347},"detail":{"type":"街区公園","area":3500}},{"name":"向敷地第２公園","address":"静岡市駿河区向敷地 1700","location":{"lat":34.9578891,"lng":138.3594066},"detail":{"type":"街区公園","area":989}},{"name":"池の谷公園","address":"静岡市駿河区大谷 4236－9","location":{"lat":34.9563454,"lng":138.431164},"detail":{"type":"街区公園","area":5176}},{"name":"浜敷地公園","address":"静岡市駿河区高松 3397","location":{"lat":34.95625649999999,"lng":138.4177014},"detail":{"type":"街区公園","area":2002}},{"name":"小坂ふれあい公園","address":"静岡市駿河区小坂 1707-1　外","location":{"lat":34.921279,"lng":138.3453531},"detail":{"type":"街区公園","area":2426}},{"name":"東源台公園","address":"静岡市駿河区国吉田六丁目 1431番4","location":{"lat":34.9879145,"lng":138.4381906},"detail":{"type":"街区公園","area":257.49}},{"name":"大谷西公園","address":"静岡市駿河区大谷 2315-2　外","location":{"lat":34.9563454,"lng":138.431164},"detail":{"type":"街区公園","area":2129}},{"name":"東大谷公園","address":"静岡市駿河区大谷 2576　外","location":{"lat":34.9563454,"lng":138.431164},"detail":{"type":"街区公園","area":2129}},{"name":"小鹿一丁目公園","address":"静岡市駿河区小鹿一丁目 652","location":{"lat":34.97648220000001,"lng":138.4182591},"detail":{"type":"街区公園","area":530.47}},{"name":"ひがしはら公園","address":"静岡市駿河区国吉田六丁目 2521","location":{"lat":34.9879145,"lng":138.4381906},"detail":{"type":"街区公園","area":420.03}},{"name":"丸子新田公園","address":"静岡市駿河区丸子新田 454-4","location":{"lat":34.9505178,"lng":138.3667006},"detail":{"type":"近隣公園","area":1102.8}},{"name":"池田大溝公園","address":"静岡市駿河区池田 937番41","location":{"lat":34.9799792,"lng":138.4271888},"detail":{"type":"街区公園","area":170.25}},{"name":"池田東静岡公園","address":"静岡市駿河区池田 97-11","location":{"lat":34.9838953,"lng":138.4213392},"detail":{"type":"街区公園","area":8313.14}},{"name":"草薙総合運動公園","address":"静岡市駿河区栗原 ","location":{"lat":34.9915751,"lng":138.4291634},"detail":{"type":"運動公園","area":238000}}]