[{"title":"静岡市立籠上中学校","address":"静岡市葵区平和二丁目 2 番 1 号","description": "TEL: 054-271-6105","location":{"lat":34.9918989,"lon":138.3666494}},{"title":"静岡市立末広中学校","address":"静岡市葵区末広町 41 番地","description": "TEL: 054-271-8171","location":{"lat":34.9829167,"lon":138.3721825}},{"title":"静岡市立安倍川中学校","address":"静岡市葵区弥勒二丁目 11 番 1 号","description": "TEL: 054-252-6148","location":{"lat":34.9632579,"lon":138.3684334}},{"title":"静岡市立美和中学校","address":"静岡市葵区足久保口組 3276 番地の 2","description": "TEL: 054-296-0009","location":{"lat":35.0437925,"lon":138.3680015}},{"title":"静岡市立城内中学校","address":"静岡市葵区駿府町 1 番 107 号","description": "TEL: 054-254-5486","location":{"lat":34.97704239999999,"lon":138.3856787}},{"title":"静岡市立安東中学校","address":"静岡市葵区安東三丁目 13 番 1 号","description": "TEL: 054-246-6418","location":{"lat":34.9930266,"lon":138.384295}},{"title":"静岡市立東中学校","address":"静岡市葵区沓谷一丁目 6 番 1 号","description": "TEL: 054-245-3695","location":{"lat":34.9858888,"lon":138.3971802}},{"title":"静岡市立西奈中学校","address":"静岡市葵区東瀬名町 14 番 1 号","description": "TEL: 054-261-3040","location":{"lat":35.0113561,"lon":138.4275187}},{"title":"静岡市立観山中学校","address":"静岡市葵区観山 8 番地の 2","description": "TEL: 054-247-4812","location":{"lat":35.0133104,"lon":138.3935966}},{"title":"静岡市立竜爪中学校","address":"静岡市葵区瀬名七丁目 31 番 40 号","description": "TEL: 054-264-1100","location":{"lat":35.0303953,"lon":138.4237078}},{"title":"静岡市立賤機中学校","address":"静岡市葵区下 1353 番地の 1","description": "TEL: 054-294-9503","location":{"lat":35.0313581,"lon":138.377062}},{"title":"静岡市立大河内中学校","address":"静岡市葵区平野 1850 番地の 66","description": "TEL: 054-293-2004","location":{"lat":35.1493837,"lon":138.3616804}},{"title":"静岡市立梅ケ島中学校","address":"静岡市葵区梅ケ島 1309 番地の 1","description": "TEL: 054-269-2148","location":{"lat":35.243925,"lon":138.3397923}},{"title":"静岡市立玉川中学校","address":"静岡市葵区落合 840 番地","description": "TEL: 054-292-2014","location":{"lat":35.1163567,"lon":138.3268836}},{"title":"静岡市立井川中学校","address":"静岡市葵区井川 1561 番地の 3","description": "TEL: 054-260-2200","location":{"lat":35.2192448,"lon":138.2354319}},{"title":"静岡市立服織中学校","address":"静岡市葵区羽鳥一丁目 8 番 1 号","description": "TEL: 054-278-9731","location":{"lat":34.9809721,"lon":138.3444076}},{"title":"静岡市立藁科中学校","address":"静岡市葵区大原 1398 番地の 1","description": "TEL: 054-279-0120","location":{"lat":35.0091641,"lon":138.2818504}},{"title":"静岡市立大川中学校","address":"静岡市葵区日向 876 番地","description": "TEL: 054-291-2031","location":{"lat":35.092379,"lon":138.2409097}},{"title":"静岡市立大里中学校","address":"静岡市駿河区中野新田 57 番地の 5","description": "TEL: 054-285-0185","location":{"lat":34.9521926,"lon":138.3851656}},{"title":"静岡市立南中学校","address":"静岡市駿河区宮竹二丁目 11 番 1 号","description": "TEL: 054-237-4900","location":{"lat":34.9510237,"lon":138.4183904}},{"title":"静岡市立中島中学校","address":"静岡市駿河区中島 3303 番地","description": "TEL: 054-284-8740","location":{"lat":34.9345974,"lon":138.3951847}},{"title":"静岡市立豊田中学校","address":"静岡市駿河区豊田一丁目 3 番 1 号","description": "TEL: 054-285-8201","location":{"lat":34.9712242,"lon":138.4090295}},{"title":"静岡市立東豊田中学校","address":"静岡市駿河区国吉田五丁目 23 番 1 号","description": "TEL: 054-262-1231","location":{"lat":34.9913642,"lon":138.4370739}},{"title":"静岡市立高松中学校","address":"静岡市駿河区登呂四丁目 6 番 1 号","description": "TEL: 054-285-4154","location":{"lat":34.9583784,"lon":138.4102298}},{"title":"静岡市立長田西中学校","address":"静岡市駿河区丸子一丁目 1 番 1 号","description": "TEL: 054-259-1278","location":{"lat":34.9474737,"lon":138.3596736}},{"title":"静岡市立長田南中学校","address":"静岡市駿河区みずほ三丁目 9 番地の1","description": "TEL: 054-259-2341","location":{"lat":34.93772209999999,"lon":138.3681231}},{"title":"静岡市立城山中学校","address":"静岡市駿河区小坂二丁目 33 番地","description": "TEL: 054-258-4646","location":{"lat":34.9305367,"lon":138.3571325}},{"title":"静岡市立清水第一中学校","address":"静岡市清水区宮代町 5 番 55 号","description": "TEL: 054-366-5920","location":{"lat":35.0267809,"lon":138.4833639}},{"title":"静岡市立清水第二中学校","address":"静岡市清水区神田町 4 番 57 号","description": "TEL: 054-353-3371","location":{"lat":35.0068776,"lon":138.4795454}},{"title":"静岡市立清水第三中学校","address":"静岡市清水区三光町 3 番 57 号","description": "TEL: 054-353-1194","location":{"lat":35.0018201,"lon":138.4871587}},{"title":"静岡市立清水第四中学校","address":"静岡市清水区村松 683 番地の 1","description": "TEL: 054-334-2261","location":{"lat":34.9906155,"lon":138.4866702}},{"title":"静岡市立清水第五中学校","address":"静岡市清水区三保 1720 番地","description": "TEL: 054-334-0034","location":{"lat":35.0015063,"lon":138.5248237}},{"title":"静岡市立清水第六中学校","address":"静岡市清水区天王西 10 番 40 号","description": "TEL: 054-366-6520","location":{"lat":35.0302631,"lon":138.4592965}},{"title":"静岡市立清水第七中学校","address":"静岡市清水区草薙三丁目 9 番 20 号","description": "TEL: 054-345-5478","location":{"lat":35.0019134,"lon":138.448112}},{"title":"静岡市立清水第八中学校","address":"静岡市清水区追分四丁目 2429 番地","description": "TEL: 054-345-5488","location":{"lat":35.0147402,"lon":138.467249}},{"title":"静岡市立清水飯田中学校","address":"静岡市清水区山原 112 番地の 1","description": "TEL: 054-365-9571","location":{"lat":35.0413565,"lon":138.4683787}},{"title":"静岡市立清水袖師中学校","address":"静岡市清水区西久保 125 番地の 1","description": "TEL: 054-366-6820","location":{"lat":35.0391212,"lon":138.4855689}},{"title":"静岡市立清水庵原中学校","address":"静岡市清水区原 245 番地","description": "TEL: 054-366-0059","location":{"lat":35.0507418,"lon":138.4805248}},{"title":"静岡市立清水興津中学校","address":"静岡市清水区興津中町 1478 番地の10","description": "TEL: 054-369-0105","location":{"lat":35.0560609,"lon":138.522265}},{"title":"静岡市立清水小島中学校","address":"静岡市清水区但沼町 271 番地","description": "TEL: 054-393-2059","location":{"lat":35.1016634,"lon":138.5106477}},{"title":"静岡市立清水両河内中学校","address":"静岡市清水区和田島 303 番地","description": "TEL: 054-395-2321","location":{"lat":35.1078286,"lon":138.4791878}},{"title":"静岡市立蒲原中学校","address":"静岡市清水区蒲原 49 番地","description": "TEL: 054-385-4115","location":{"lat":35.1241932,"lon":138.6196824}},{"title":"静岡市立由比中学校","address":"静岡市清水区由比 456 番地","description": "TEL: 054-375-3135","location":{"lat":35.1081062,"lon":138.5630931}}]
