[{"title":"上土","address":"静岡市古庄四丁目2-11","description":"TEL: 261-6044","location":{"lat":34.99901,"lon":138.4159975}},{"title":"安倍口","address":"静岡市安倍口新田43-1","description":"TEL: 296-1824","location":{"lat":35.0223703,"lon":138.358922}},{"title":"安倍口中央","address":"静岡市安倍口団地3-1","description":"TEL: 296-0345","location":{"lat":35.0203455,"lon":138.3647492}},{"title":"安東","address":"静岡市安東三丁目11-17","description":"TEL: 245-6227","location":{"lat":34.9916434,"lon":138.3840451}},{"title":"新富町","address":"静岡市新富町三丁目21-2","description":"TEL: 252-2746","location":{"lat":34.9713866,"lon":138.3695458}},{"title":"瀬名川","address":"静岡市瀬名川一丁目21-40","description":"TEL: 262-5940","location":{"lat":35.0047541,"lon":138.4269216}},{"title":"田町","address":"静岡市田町一丁目79","description":"TEL: 252-6374","location":{"lat":34.9749676,"lon":138.3660861}},{"title":"長沼","address":"静岡市長沼二丁目18-31","description":"TEL: 261-1241","location":{"lat":34.9932829,"lon":138.414259}},{"title":"中藁科","address":"静岡市大原1237","description":"TEL: 279-0002","location":{"lat":35.0075003,"lon":138.2787341}},{"title":"西奈","address":"静岡市瀬名三丁目24-25","description":"TEL: 261-3016","location":{"lat":35.0234628,"lon":138.4210331}},{"title":"服織","address":"静岡市山崎一丁目17-1","description":"TEL: 278-9721","location":{"lat":34.9757119,"lon":138.3538344}},{"title":"服織中央","address":"静岡市羽鳥本町25-33","description":"TEL: 278-2217","location":{"lat":34.9863655,"lon":138.3302342}},{"title":"藁科","address":"静岡市吉津1","description":"TEL: 278-6637","location":{"lat":34.9804183,"lon":138.3088672}},{"title":"井川","address":"静岡市井川548-1","description":"TEL: 260-2301","location":{"lat":35.221278,"lon":138.2387621}},{"title":"梅ケ島","address":"静岡市梅ケ島544-4","description":"TEL: 269-2004","location":{"lat":35.2435306,"lon":138.3460808}},{"title":"大川","address":"静岡市坂ノ上1239-4","description":"TEL: 291-2123","location":{"lat":35.0726405,"lon":138.2478154}},{"title":"清沢","address":"静岡市昼居渡66-2","description":"TEL: 295-3022","location":{"lat":35.0345713,"lon":138.253528}},{"title":"北沼上","address":"静岡市北沼上758-1","description":"TEL: 261-3713","location":{"lat":35.0351504,"lon":138.4245827}},{"title":"こすもす","address":"静岡市秋山町25-3","description":"TEL: 271-6208","location":{"lat":35.0054723,"lon":138.3628855}},{"title":"賤機","address":"静岡市俵沢109","description":"TEL: 294-0169","location":{"lat":35.108273,"lon":138.3647055}},{"title":"新間杉の子","address":"静岡市新間670-9","description":"TEL: 278-7557","location":{"lat":34.9954749,"lon":138.3083003}},{"title":"大谷","address":"静岡市西大谷6-8","description":"TEL: 237-2476","location":{"lat":34.9540984,"lon":138.4268284}},{"title":"小黒","address":"静岡市小黒一丁目7-6","description":"TEL: 285-3718","location":{"lat":34.9750319,"lon":138.4008996}},{"title":"久能","address":"静岡市青沢240","description":"TEL: 237-1713","location":{"lat":34.9555983,"lon":138.4514647}},{"title":"下川原","address":"静岡市下川原六丁目8-26","description":"TEL: 258-5958","location":{"lat":34.9335836,"lon":138.3736283}},{"title":"高松","address":"静岡市敷地二丁目7-14","description":"TEL: 237-6740","location":{"lat":34.94931820000001,"lon":138.4124327}},{"title":"東新田","address":"静岡市東新田四丁目1-40","description":"TEL: 257-0256","location":{"lat":34.9447907,"lon":138.3757417}},{"title":"登呂","address":"静岡市登呂三丁目19-1","description":"TEL: 285-8592","location":{"lat":34.9584533,"lon":138.4073162}},{"title":"中田","address":"静岡市馬渕四丁目2-29","description":"TEL: 282-7905","location":{"lat":34.9625609,"lon":138.3921563}},{"title":"中村町","address":"静岡市中村町94","description":"TEL: 281-9832","location":{"lat":34.95386740000001,"lon":138.3920205}},{"title":"東豊田","address":"静岡市池田492-2","description":"TEL: 262-0096","location":{"lat":34.9840426,"lon":138.4243889}},{"title":"東豊田中央","address":"静岡市国吉田六丁目7-29","description":"TEL: 261-6320","location":{"lat":34.9903393,"lon":138.4365184}},{"title":"広野","address":"静岡市広野六丁目11-1","description":"TEL: 259-5195","location":{"lat":34.929009,"lon":138.3736617}},{"title":"富士見台","address":"静岡市富士見台二丁目11-44","description":"TEL: 282-6188","location":{"lat":34.9631336,"lon":138.4179929}},{"title":"丸子","address":"静岡市丸子二丁目18-32","description":"TEL: 259-9810","location":{"lat":34.9428715,"lon":138.3556102}},{"title":"用宗","address":"静岡市用宗五丁目18-7","description":"TEL: 259-2702","location":{"lat":34.918335,"lon":138.3612822}},{"title":"八幡","address":"静岡市八幡二丁目15-20","description":"TEL: 285-4049","location":{"lat":34.9716099,"lon":138.3973889}},{"title":"小鹿","address":"静岡市小鹿二丁目25-15","description":"TEL: 285-4538","location":{"lat":34.974126,"lon":138.4207737}},{"title":"静岡なかはら","address":"静岡市中原524","description":"TEL: 285-6912","location":{"lat":34.956306,"lon":138.3860376}},{"title":"ひばり","address":"静岡市用宗四丁目18-28","description":"TEL: 259-2502","location":{"lat":34.9198932,"lon":138.362996}},{"title":"ふじみ","address":"静岡市西島402","description":"TEL: 281-2673","location":{"lat":34.9448769,"lon":138.4058112}},{"title":"飯田北","address":"静岡市石川本町11-92","description":"TEL: 366-2743","location":{"lat":35.0342988,"lon":138.4613573}},{"title":"飯田南","address":"静岡市高橋四丁目4-56","description":"TEL: 366-6216","location":{"lat":35.0291692,"lon":138.474359}},{"title":"庵原","address":"静岡市庵原町1938","description":"TEL: 366-5683","location":{"lat":35.0543245,"lon":138.4732865}},{"title":"入江","address":"静岡市入江一丁目13-15","description":"TEL: 366-5904","location":{"lat":35.0191261,"lon":138.4793006}},{"title":"有度北","address":"静岡市長崎740-1","description":"TEL: 347-0216","location":{"lat":35.0156921,"lon":138.4431815}},{"title":"有度西","address":"静岡市中之郷一丁目10-27","description":"TEL: 345-7755","location":{"lat":34.99857739999999,"lon":138.4406764}},{"title":"興津北","address":"静岡市八木間町478","description":"TEL: 369-1084","location":{"lat":35.0654959,"lon":138.5209204}},{"title":"興津南","address":"静岡市興津中町562","description":"TEL: 369-0749","location":{"lat":35.0553999,"lon":138.5274311}},{"title":"小島","address":"静岡市小島町621-1","description":"TEL: 393-3014","location":{"lat":35.09153149999999,"lon":138.5146199}},{"title":"折戸","address":"静岡市折戸五丁目8-1","description":"TEL: 334-0836","location":{"lat":34.9906295,"lon":138.5158087}},{"title":"川原","address":"静岡市川原町24-8","description":"TEL: 352-1358","location":{"lat":35.0002643,"lon":138.475207}},{"title":"小河内","address":"静岡市小河内2693-2","description":"TEL: 393-2192","location":{"lat":35.119897,"lon":138.5103472}},{"title":"駒越","address":"静岡市迎山町4-15","description":"TEL: 334-7080","location":{"lat":34.9775306,"lon":138.4923617}},{"title":"清水","address":"静岡市本町11-32","description":"TEL: 352-4229","location":{"lat":35.0085138,"lon":138.4871752}},{"title":"高部","address":"静岡市押切996-2","description":"TEL: 346-1758","location":{"lat":35.0280493,"lon":138.4535526}},{"title":"高部中央","address":"静岡市梅ケ谷459-1","description":"TEL: 346-1503","location":{"lat":35.0425031,"lon":138.4519857}},{"title":"辻","address":"静岡市辻四丁目7-21","description":"TEL: 366-6227","location":{"lat":35.028728,"lon":138.4864219}},{"title":"西久保","address":"静岡市西久保438-1","description":"TEL: 366-6625","location":{"lat":35.0358826,"lon":138.4843385}},{"title":"原","address":"静岡市原45-5","description":"TEL: 366-3800","location":{"lat":35.0472673,"lon":138.4829747}},{"title":"三保","address":"静岡市三保1601","description":"TEL: 334-0556","location":{"lat":34.9994481,"lon":138.5227102}},{"title":"横砂","address":"静岡市横砂東町17-5","description":"TEL: 365-8739","location":{"lat":35.0442817,"lon":138.5027895}},{"title":"和田島","address":"静岡市和田島694-1","description":"TEL: 395-2320","location":{"lat":35.11005060000001,"lon":138.4792822}},{"title":"蒲原西部","address":"静岡市蒲原中566-1","description":"TEL: 385-2539","location":{"lat":35.11589920000001,"lon":138.5835023}},{"title":"蒲原東部","address":"静岡市蒲原5092-3","description":"TEL: 385-3411","location":{"lat":35.12605970000001,"lon":138.6200657}},{"title":"入山","address":"静岡市由比入山1964","description":"TEL: 375-2628","location":{"lat":35.1303857,"lon":138.5572797}},{"title":"由比","address":"静岡市由比377-1","description":"TEL: 375-4510","location":{"lat":35.1094921,"lon":138.561696}},{"title":"由比中央","address":"静岡市由比北田146","description":"TEL: 377-0888","location":{"lat":35.1085978,"lon":138.5590351}},{"title":"ももはな","address":"静岡市興津中町335-1","description":"TEL: 369-2228","location":{"lat":35.0538501,"lon":138.526098}},{"title":"蒲原学園","address":"静岡市蒲原中204","description":"TEL: 385-3056","location":{"lat":35.1137411,"lon":138.5886574}},{"title":"清水白百合","address":"静岡市木の下町312","description":"TEL: 352-6428","location":{"lat":35.0040888,"lon":138.4714767}},{"title":"草薙ふたば","address":"静岡市草薙359-6","description":"TEL: 346-9619","location":{"lat":34.9929782,"lon":138.4538172}},{"title":"東海大付属","address":"静岡市折戸三丁目20-1","description":"TEL: 334-0619","location":{"lat":34.9887796,"lon":138.5152811}},{"title":"梅花","address":"静岡市蒲原新田二丁目16-23","description":"TEL: 385-5477","location":{"lat":35.118935,"lon":138.5998981}},{"title":"めぐみ","address":"静岡市淡島町2-9","description":"TEL: 366-2519","location":{"lat":35.0146573,"lon":138.4798173}},{"title":"若竹","address":"静岡市蜂ケ谷443","description":"TEL: 367-1696","location":{"lat":35.0424949,"lon":138.4573657}},{"title":"静岡ホーム","address":"静岡市井宮町183","description":"TEL: 272-2379","location":{"lat":34.9880744,"lon":138.3718574}},{"title":"千代田","address":"静岡市上足洗二丁目2-10","description":"TEL: 245-2820","location":{"lat":34.9916351,"lon":138.3914083}},{"title":"日吉町","address":"静岡市鷹匠二丁目24-18","description":"TEL: 252-3699","location":{"lat":34.976673,"lon":138.3909421}},{"title":"春日","address":"静岡市春日一丁目2-18","description":"TEL: 252-5070","location":{"lat":34.978748,"lon":138.399058}},{"title":"一番町","address":"静岡市一番町36","description":"TEL: 252-8889","location":{"lat":34.975362,"lon":138.3739492}},{"title":"月影","address":"静岡市北三丁目41-20","description":"TEL: 246-3705","location":{"lat":35.0414766,"lon":138.4000626}},{"title":"うしづま","address":"静岡市牛妻2106","description":"TEL: 294-0071","location":{"lat":35.0668894,"lon":138.3697451}},{"title":"若松","address":"静岡市若松町66","description":"TEL: 271-6602","location":{"lat":34.97832,"lon":138.3673359}},{"title":"ルンビニー","address":"静岡市大鋸町8-1","description":"TEL: 255-0856","location":{"lat":34.9727068,"lon":138.3745159}},{"title":"足久保","address":"静岡市足久保口組29-5","description":"TEL: 296-1025","location":{"lat":35.0469282,"lon":138.3664238}},{"title":"北安東","address":"静岡市北安東四丁目29-24","description":"TEL: 246-8486","location":{"lat":35.0044752,"lon":138.3855085}},{"title":"沼上","address":"静岡市南沼上一丁目22-1","description":"TEL: 261-2543","location":{"lat":35.00876969999999,"lon":138.4073676}},{"title":"水落","address":"静岡市水落町19-16","description":"TEL: 245-7714","location":{"lat":34.9834305,"lon":138.390367}},{"title":"蛍ケ丘","address":"静岡市新間394-1","description":"TEL: 278-7355","location":{"lat":34.9878674,"lon":138.3064701}},{"title":"こぐま","address":"静岡市昭府一丁目2-25","description":"TEL: 271-6475","location":{"lat":34.9975482,"lon":138.3691296}},{"title":"いけがや","address":"静岡市岳美一丁目4-1","description":"TEL: 246-6456","location":{"lat":35.0067916,"lon":138.3901831}},{"title":"こばと","address":"静岡市巴町58-1","description":"TEL: 245-5936","location":{"lat":34.9849305,"lon":138.3942471}},{"title":"小百合ｷﾝﾀﾞｰﾎｰﾑ","address":"静岡市上伝馬18-28","description":"TEL: 271-1237","location":{"lat":35.0087302,"lon":138.3717764}},{"title":"あゆみ","address":"静岡市瀬名中央三丁目12-8","description":"TEL: 261-4064","location":{"lat":35.0110142,"lon":138.4193999}},{"title":"麻機","address":"静岡市北一丁目11-55","description":"TEL: 245-1584","location":{"lat":35.0353578,"lon":138.3953743}},{"title":"美和","address":"静岡市遠藤新田339-2","description":"TEL: 296-0079","location":{"lat":35.0263587,"lon":138.3611801}},{"title":"城北","address":"静岡市北安東三丁目10-26","description":"TEL: 247-5003","location":{"lat":34.9990064,"lon":138.3842115}},{"title":"あゆみ第２","address":"静岡市瀬名中央一丁目1-44","description":"TEL: 263-5546","location":{"lat":35.0067759,"lon":138.4206137}},{"title":"いさみ","address":"静岡市桜町二丁目4-51","description":"TEL: 272-2918","location":{"lat":34.9990425,"lon":138.3625107}},{"title":"麻華","address":"静岡市北一丁目29-25","description":"TEL: 247-8200","location":{"lat":35.029714,"lon":138.3939883}},{"title":"竜南","address":"静岡市竜南一丁目19-15","description":"TEL: 248-6668","location":{"lat":34.998265,"lon":138.3957299}},{"title":"あい(古庄)","address":"静岡市古庄三丁目23-10","description":"TEL: 207-9811","location":{"lat":34.9950051,"lon":138.4210722}},{"title":"沼上分園","address":"静岡市川合三丁目1-13","description":"TEL: 207-8350","location":{"lat":35.0052341,"lon":138.4124422}},{"title":"あけぼの","address":"静岡市有明町9-7","description":"TEL: 285-4227","location":{"lat":34.9650054,"lon":138.4087436}},{"title":"静岡隣人会","address":"静岡市新川一丁目3-7","description":"TEL: 285-0970","location":{"lat":34.9658215,"lon":138.3814933}},{"title":"若草","address":"静岡市西脇636","description":"TEL: 282-3389","location":{"lat":34.9428382,"lon":138.3994979}},{"title":"るり","address":"静岡市向敷地１１２１－７","description":"TEL: 258-8001","location":{"lat":34.9616387,"lon":138.3573234}},{"title":"セイユウ","address":"静岡市北丸子二丁目21-12","description":"TEL: 258-6543","location":{"lat":34.9510924,"lon":138.3454416}},{"title":"たんぽぽ","address":"静岡市池田625-1","description":"TEL: 263-0229","location":{"lat":34.9795986,"lon":138.4218087}},{"title":"ゆりかご","address":"静岡市曲金七丁目4-36","description":"TEL: 286-2148","location":{"lat":34.9781236,"lon":138.4159093}},{"title":"ほのぼの","address":"静岡市登呂六丁目17-50","description":"TEL: 293-9211","location":{"lat":34.9520844,"lon":138.4021085}},{"title":"長田ちびっこ","address":"静岡市みずほ五丁目13-25","description":"TEL: 258-6195","location":{"lat":34.9391886,"lon":138.3650428}},{"title":"あい(みずほ)","address":"静岡市みずほ四丁目10-1","description":"TEL: 266-9466","location":{"lat":34.94095780000001,"lon":138.3651677}},{"title":"つくしんぼ","address":"静岡市池田1340-1","description":"TEL: 297-4984","location":{"lat":34.7305667,"lon":137.8126364}},{"title":"清水聖母","address":"静岡市岡町1-34","description":"TEL: 352-8558","location":{"lat":35.0097941,"lon":138.4835949}},{"title":"有度十七夜山","address":"静岡市上原二丁目4-50","description":"TEL: 345-4406","location":{"lat":35.0090628,"lon":138.4564113}},{"title":"相生","address":"静岡市三保16-2","description":"TEL: 334-0309","location":{"lat":34.9974677,"lon":138.5166027}},{"title":"清水隣保館","address":"静岡市有東坂4-8","description":"TEL: 344-1234","location":{"lat":35.0123238,"lon":138.465327}},{"title":"嶺","address":"静岡市袖師町359","description":"TEL: 366-0266","location":{"lat":35.0377964,"lon":138.4893269}},{"title":"袖師","address":"静岡市横砂本町20-8","description":"TEL: 366-0334","location":{"lat":35.0437818,"lon":138.4989732}},{"title":"ふたば","address":"静岡市興津中町1422-1","description":"TEL: 369-1902","location":{"lat":35.0588106,"lon":138.5250174}},{"title":"曙","address":"静岡市駒越東町9-7","description":"TEL: 334-7377","location":{"lat":34.9817358,"lon":138.5037827}},{"title":"杉の子","address":"静岡市入江一丁目13-30","description":"TEL: 366-3865","location":{"lat":35.0192594,"lon":138.4786645}},{"title":"のぞみ","address":"静岡市万世町二丁目8-13","description":"TEL: 353-1956","location":{"lat":35.0126439,"lon":138.4893887}},{"title":"矢部","address":"静岡市南矢部669","description":"TEL: 351-2030","location":{"lat":34.996673,"lon":138.4761876}},{"title":"吉原","address":"静岡市吉原1012-1","description":"TEL: 368-1032","location":{"lat":35.0849065,"lon":138.4608536}},{"title":"風の子","address":"静岡市押切1261-1","description":"TEL: 345-6598","location":{"lat":35.0327152,"lon":138.4476669}},{"title":"あいわ","address":"静岡市下野町12-68","description":"TEL: 361-1015","location":{"lat":35.0355681,"lon":138.4636515}},{"title":"みどりが丘","address":"静岡市日立町4-19","description":"TEL: 337-0886","location":{"lat":34.9942874,"lon":138.4859312}},{"title":"えじり","address":"静岡市宝町2-25","description":"TEL: 366-2689","location":{"lat":35.0219037,"lon":138.4830835}},{"title":"うど東","address":"静岡市吉川642","description":"TEL: 345-3605","location":{"lat":35.0199144,"lon":138.4600301}},{"title":"清水みらい","address":"静岡市八坂北二丁目20-10","description":"TEL: 364-9922","location":{"lat":35.0371598,"lon":138.4722056}},{"title":"なのはなｶﾞｰﾃﾞﾝ","address":"静岡市川越町4-5","description":"TEL: 253-0443","location":{"lat":34.9644689,"lon":138.3728302}},{"title":"hugくむ","address":"静岡市大岩町5-19","description":"TEL: 248-5423","location":{"lat":34.9954513,"lon":138.3789954}},{"title":"みつばち","address":"静岡市北安東五丁目20-2","description":"TEL: 246-3011","location":{"lat":34.9976344,"lon":138.3912165}},{"title":"瀬名おひさまの森","address":"静岡市瀬名川二丁目23-11","description":"TEL: 655-6111","location":{"lat":35.0072566,"lon":138.4289437}},{"title":"モコ幸町","address":"静岡市幸町6-28","description":"TEL: 266-4159","location":{"lat":34.9682212,"lon":138.3714052}},{"title":"モコ山崎","address":"静岡市山崎一丁目8-5","description":"TEL: 297-4154","location":{"lat":34.9779004,"lon":138.3504375}},{"title":"ゼリービーンズ","address":"静岡市八幡二丁目4-14","description":"TEL: 285-1027","location":{"lat":34.9702267,"lon":138.3946475}},{"title":"中田おひさまの森","address":"静岡市馬渕三丁目3-16","description":"TEL: 269-6000","location":{"lat":34.964041,"lon":138.3868699}},{"title":"がーでにあ","address":"静岡市南安倍三丁目12-1","description":"TEL: 269-6101","location":{"lat":34.9605082,"lon":138.3762634}},{"title":"ひだまり","address":"静岡市豊田一丁目9-2","description":"TEL: 374-7063","location":{"lat":34.9688745,"lon":138.4076881}},{"title":"ちゃいるどはうす","address":"静岡市草薙杉道三丁目1-26","description":"TEL: 368-7858","location":{"lat":35.0040771,"lon":138.4509618}},{"title":"南清龍愛児園","address":"静岡市追分一丁目2-23","description":"TEL: 366-1676","location":{"lat":35.0161097,"lon":138.4752149}},{"title":"こねこのーと","address":"静岡市弥生町11-30","description":"TEL: 366-3955","location":{"lat":34.9734011,"lon":138.3890479}},{"title":"なでしこ","address":"静岡市小鹿一丁目51-30","description":"TEL: 283-2200","location":{"lat":34.9760184,"lon":138.4203923}},{"title":"かえで","address":"静岡市井宮町207","description":"TEL: 271-0525","location":{"lat":34.9874467,"lon":138.3715685}},{"title":"桜花","address":"静岡市馬場町77","description":"TEL: 253-1108","location":{"lat":34.9787699,"lon":138.3763517}},{"title":"静岡田町","address":"静岡市田町四丁目67-3","description":"TEL: 251-3115","location":{"lat":34.9691739,"lon":138.366089}},{"title":"こまどり","address":"静岡市駒形通四丁目13-20","description":"TEL: 252-5981","location":{"lat":34.9655354,"lon":138.3770215}},{"title":"リリー","address":"静岡市昭府二丁目18-20","description":"TEL: 271-8044","location":{"lat":35.0031726,"lon":138.3677712}},{"title":"静岡平和","address":"静岡市平和二丁目23-22","description":"TEL: 271-3016","location":{"lat":34.9934987,"lon":138.3672271}},{"title":"第一ひかり","address":"静岡市与一五丁目3-25","description":"TEL: 271-5700","location":{"lat":35.0125825,"lon":138.3564194}},{"title":"羽鳥るり","address":"静岡市羽鳥本町1-1","description":"TEL: 278-2355","location":{"lat":34.9821522,"lon":138.3333117}},{"title":"わらべ","address":"静岡市千代一丁目4-15","description":"TEL: 278-1505","location":{"lat":34.9806474,"lon":138.3522039}},{"title":"静岡聖母","address":"静岡市城内町1-2","description":"TEL: 253-1220","location":{"lat":34.9817196,"lon":138.381104}},{"title":"てるみ","address":"静岡市大岩町12-37","description":"TEL: 246-7547","location":{"lat":34.9910518,"lon":138.3762986}},{"title":"麻機","address":"静岡市南1540-10","description":"TEL: 245-5777","location":{"lat":35.0242173,"lon":138.3898775}},{"title":"常葉附属とこは","address":"静岡市城北37","description":"TEL: 246-3712","location":{"lat":35.0003481,"lon":138.3946883}},{"title":"常葉附属たちばな","address":"静岡市瀬名一丁目1-17","description":"TEL: 261-1746","location":{"lat":35.0109253,"lon":138.4178611}},{"title":"千代田","address":"静岡市東千代田一丁目8-10","description":"TEL: 261-7624","location":{"lat":35.0007263,"lon":138.409262}},{"title":"横内","address":"静岡市横内町103-1","description":"TEL: 245-1133","location":{"lat":34.9843443,"lon":138.3913058}},{"title":"静岡精華","address":"静岡市鷹匠三丁目11-24","description":"TEL: 252-7300","location":{"lat":34.9790172,"lon":138.3893533}},{"title":"静大附属","address":"静岡市大岩町1-10","description":"TEL: 245-1191","location":{"lat":34.9913406,"lon":138.3794399}},{"title":"丸子","address":"静岡市丸子六丁目7-3","description":"TEL: 259-3491","location":{"lat":34.9490677,"lon":138.3462415}},{"title":"るり","address":"静岡市向敷地11","description":"TEL: 259-6779","location":{"lat":34.9540368,"lon":138.3630759}},{"title":"かわはらいづみ","address":"静岡市みずほ一丁目12-15","description":"TEL: 259-9609","location":{"lat":34.9441574,"lon":138.368334}},{"title":"梨花","address":"静岡市下川原二丁目33-15","description":"TEL: 258-9118","location":{"lat":34.9375693,"lon":138.3761307}},{"title":"若杉","address":"静岡市丸子3653","description":"TEL: 259-3125","location":{"lat":34.9406189,"lon":138.3529716}},{"title":"静岡聖光","address":"静岡市馬渕三丁目15-26","description":"TEL: 285-0667","location":{"lat":34.9645575,"lon":138.387552}},{"title":"静岡若葉","address":"静岡市中田三丁目7-2","description":"TEL: 285-2326","location":{"lat":34.9606945,"lon":138.3967282}},{"title":"南八幡","address":"静岡市南八幡町3-6","description":"TEL: 285-0529","location":{"lat":34.9623889,"lon":138.401686}},{"title":"やよい","address":"静岡市石田二丁目18-28","description":"TEL: 285-8011","location":{"lat":34.9572284,"lon":138.4048831}},{"title":"静岡南","address":"静岡市中田本町30-1","description":"TEL: 286-1919","location":{"lat":34.957317,"lon":138.3920121}},{"title":"大里東","address":"静岡市高松2526-2","description":"TEL: 237-3711","location":{"lat":34.9472045,"lon":138.4157963}},{"title":"静岡豊田","address":"静岡市曲金二丁目5-21","description":"TEL: 283-2258","location":{"lat":34.9774817,"lon":138.4050742}},{"title":"八幡聖母","address":"静岡市八幡四丁目10-14","description":"TEL: 285-1420","location":{"lat":34.968677,"lon":138.3996527}},{"title":"静岡学園","address":"静岡市聖一色400","description":"TEL: 262-0914","location":{"lat":34.9871478,"lon":138.4269831}},{"title":"さくら","address":"静岡市入江南町15-19","description":"TEL: 366-2562","location":{"lat":35.0157154,"lon":138.4769425}},{"title":"船原","address":"静岡市船原一丁目348-12","description":"TEL: 345-5384","location":{"lat":35.0073411,"lon":138.4683158}},{"title":"静岡サレジオ","address":"静岡市中之郷三丁目2-1","description":"TEL: 345-2553","location":{"lat":35.00239639999999,"lon":138.4389181}},{"title":"梅花","address":"静岡市南岡町3-8","description":"TEL: 353-1342","location":{"lat":35.0056113,"lon":138.4866309}},{"title":"江尻","address":"静岡市二の丸町2-7","description":"TEL: 366-1016","location":{"lat":35.0234173,"lon":138.4799837}},{"title":"東海","address":"静岡市興津本町78","description":"TEL: 369-1311","location":{"lat":35.0474952,"lon":138.5168408}},{"title":"日本平","address":"静岡市村松3834","description":"TEL: 334-5281","location":{"lat":34.9857991,"lon":138.4807041}},{"title":"有度","address":"静岡市草薙一里山1-11","description":"TEL: 345-8955","location":{"lat":35.00696569999999,"lon":138.451595}},{"title":"八坂","address":"静岡市八坂東二丁目4-28","description":"TEL: 366-1668","location":{"lat":35.0341049,"lon":138.4778169}},{"title":"東光","address":"静岡市蒲原二丁目13-3","description":"TEL: 385-5360","location":{"lat":35.1212877,"lon":138.6078196}},{"title":"蒲原聖母","address":"静岡市蒲原神沢135","description":"TEL: 385-3319","location":{"lat":35.1129607,"lon":138.5779917}}]