[{"title":"静岡市立番町小学校","address":"静岡市葵区新富町一丁目 23 番地の 1","description": "TEL: 054-253-2148","location":{"lat":34.9752815,"lon":138.3689469}},{"title":"静岡市立新通小学校","address":"静岡市葵区駒形通二丁目 4 番 47 号","description": "TEL: 054-252-1301","location":{"lat":34.9701904,"lon":138.3771102}},{"title":"静岡市立駒形小学校","address":"静岡市葵区南安倍二丁目 1 番 1 号","description": "TEL: 054-252-3340","location":{"lat":34.9615775,"lon":138.3731053}},{"title":"静岡市立安西小学校","address":"静岡市葵区安西一丁目 96 番地の 3","description": "TEL: 054-271-1551","location":{"lat":34.9809391,"lon":138.3742852}},{"title":"静岡市立田町小学校","address":"静岡市葵区田町五丁目 70 番地","description": "TEL: 054-255-3428","location":{"lat":34.9673157,"lon":138.3668057}},{"title":"静岡市立井宮小学校","address":"静岡市葵区平和一丁目 7 番 1 号","description": "TEL: 054-271-5288","location":{"lat":34.9884438,"lon":138.3667689}},{"title":"静岡市立井宮北小学校","address":"静岡市葵区上伝馬 2 番 1 号","description": "TEL: 054-272-1326","location":{"lat":35.0046502,"lon":138.3686989}},{"title":"静岡市立安倍口小学校","address":"静岡市葵区安倍口新田 50 番地","description": "TEL: 054-296-0005","location":{"lat":35.0223814,"lon":138.359808}},{"title":"静岡市立美和小学校","address":"静岡市葵区遠藤新田 69 番地の 1","description": "TEL: 054-296-0700","location":{"lat":35.0300582,"lon":138.3684211}},{"title":"静岡市立足久保小学校","address":"静岡市葵区足久保奥組 741 番地の 1","description": "TEL: 054-296-0051","location":{"lat":35.0612171,"lon":138.338312}},{"title":"静岡市立伝馬町小学校","address":"静岡市葵区伝馬町 14 番地の 2","description": "TEL: 054-254-9185","location":{"lat":34.9753621,"lon":138.3912894}},{"title":"静岡市立葵小学校","address":"静岡市葵区城内町 7 番 9 号","description": "TEL: 054-255-3471","location":{"lat":34.9822862,"lon":138.3830316}},{"title":"静岡市立横内小学校","address":"静岡市葵区緑町 1 番 1 号","description": "TEL: 054-245-4695","location":{"lat":34.9860942,"lon":138.3928917}},{"title":"静岡市立安東小学校","address":"静岡市葵区安東三丁目 16 番 1 号","description": "TEL: 054-245-2638","location":{"lat":34.9917489,"lon":138.3834423}},{"title":"静岡市立竜南小学校","address":"静岡市葵区竜南一丁目 23 番 1 号","description": "TEL: 054-246-3061","location":{"lat":34.9990594,"lon":138.396316}},{"title":"静岡市立城北小学校","address":"静岡市葵区北安東四丁目 27 番 3 号","description": "TEL: 054-246-4111","location":{"lat":35.0027837,"lon":138.3879333}},{"title":"静岡市立千代田小学校","address":"静岡市葵区沓谷五丁目 47 番地の 1","description": "TEL: 054-261-2685","location":{"lat":34.9961517,"lon":138.4068596}},{"title":"静岡市立千代田東小学校","address":"静岡市葵区川合三丁目 4 番 1 号","description": "TEL: 054-262-1842","location":{"lat":35.0058147,"lon":138.413867}},{"title":"静岡市立北沼上小学校","address":"静岡市葵区北沼上 1020 番地","description": "TEL: 054-266-2021","location":{"lat":35.04746,"lon":138.4239103}},{"title":"静岡市立麻機小学校","address":"静岡市葵区有永 421 番地の 1","description": "TEL: 054-245-9826","location":{"lat":35.0256949,"lon":138.3894942}},{"title":"静岡市立西奈小学校","address":"静岡市葵区瀬名三丁目 23 番 1 号","description": "TEL: 054-261-3041","location":{"lat":35.0231184,"lon":138.4220052}},{"title":"静岡市立西奈南小学校","address":"静岡市葵区南瀬名町 1 番 20 号","description": "TEL: 054-263-5544","location":{"lat":35.002232,"lon":138.4226219}},{"title":"静岡市立賤機南小学校","address":"静岡市葵区松富三丁目 1 番 46 号","description": "TEL: 054-271-2335","location":{"lat":35.0144823,"lon":138.3747206}},{"title":"静岡市立賤機中小学校","address":"静岡市葵区牛妻 2095 番地の 2","description": "TEL: 054-294-0003","location":{"lat":35.0649036,"lon":138.3698146}},{"title":"静岡市立賤機北小学校","address":"静岡市葵区俵沢 234 番地の 1","description": "TEL: 054-294-0004","location":{"lat":35.1081786,"lon":138.3673136}},{"title":"静岡市立松野小学校","address":"静岡市葵区松野 598 番地の 2","description": "TEL: 054-294-0002","location":{"lat":35.076427,"lon":138.3673534}},{"title":"静岡市立大河内小学校","address":"静岡市葵区平野 1850 番地の 3","description": "TEL: 054-293-2303","location":{"lat":35.1485588,"lon":138.3613304}},{"title":"静岡市立梅ケ島小学校","address":"静岡市葵区梅ケ島 1309 番地の 1","description": "TEL: 054-269-2009","location":{"lat":35.243925,"lon":138.3397923}},{"title":"静岡市立玉川小学校","address":"静岡市葵区落合 103 番地の 3","description": "TEL: 054-292-2012","location":{"lat":35.1104328,"lon":138.3337026}},{"title":"静岡市立井川小学校","address":"静岡市葵区井川 708 番地の 1","description": "TEL: 054-260-2004","location":{"lat":35.2234639,"lon":138.2390899}},{"title":"静岡市立服織小学校","address":"静岡市葵区羽鳥六丁目 9 番 1 号","description": "TEL: 054-278-6322","location":{"lat":34.9856547,"lon":138.3366279}},{"title":"静岡市立服織西小学校","address":"静岡市葵区新間 759 番地の 1 の l","description": "TEL: 054-278-9793","location":{"lat":34.9936501,"lon":138.3077282}},{"title":"静岡市立南藁科小学校","address":"静岡市葵区吉津 400 番地","description": "TEL: 054-278-9734","location":{"lat":34.9794353,"lon":138.315311}},{"title":"静岡市立中藁科小学校","address":"静岡市葵区大原 942 番地の 1","description": "TEL: 054-279-0130","location":{"lat":35.00975,"lon":138.2762038}},{"title":"静岡市立中藁科小学校小布杉分校(休校)","address":"静岡市葵区小布杉 1756 番地の 1","description": "TEL: 054-270-1301","location":{"lat":34.9984226,"lon":138.2435441}},{"title":"静岡市立水見色小学校","address":"静岡市葵区水見色 1040 番地の 3","description": "TEL: 054-279-0123","location":{"lat":35.0383415,"lon":138.2944869}},{"title":"静岡市立清沢小学校","address":"静岡市葵区相俣 99 番地の l","description": "TEL: 054-295-3010","location":{"lat":35.0332407,"lon":138.2457012}},{"title":"静岡市立峰山小学校","address":"静岡市葵区黒俣 2741 番地の 16","description": "TEL: 054-295-3131","location":{"lat":35.0687625,"lon":138.2067432}},{"title":"静岡市立大川小学校","address":"静岡市葵区日向 853 番地","description": "TEL: 054-291-2004","location":{"lat":35.091968,"lon":138.2420541}},{"title":"静岡市立中田小学校","address":"静岡市駿河区中田二丁目 14 番 1 号","description": "TEL: 054-286-3245","location":{"lat":34.9638718,"lon":138.3923452}},{"title":"静岡市立中島小学校","address":"静岡市駿河区中島 2992 番地の 1","description": "TEL: 054-283-4455","location":{"lat":34.9410745,"lon":138.3995646}},{"title":"静岡市立大里東小学校","address":"静岡市駿河区高松 2310 番地","description": "TEL: 054-237-0879","location":{"lat":34.9465407,"lon":138.418785}},{"title":"静岡市立大里西小学校","address":"静岡市駿河区中原 400 番地","description": "TEL: 054-285-9195","location":{"lat":34.9569531,"lon":138.3863765}},{"title":"静岡市立大谷小学校","address":"静岡市駿河区大谷 3683 番地の 2","description": "TEL: 054-237-0008","location":{"lat":34.9548317,"lon":138.4292837}},{"title":"静岡市立久能小学校","address":"静岡市駿河区古宿 213 番地の 2","description": "TEL: 054-237-4744","location":{"lat":34.957862,"lon":138.4564726}},{"title":"静岡市立宮竹小学校","address":"静岡市駿河区宮竹二丁目 12 番 1 号","description": "TEL: 054-237-2231","location":{"lat":34.9517319,"lon":138.4174905}},{"title":"静岡市立森下小学校","address":"静岡市駿河区森下町 2 番 1 号","description": "TEL: 054-286-3105","location":{"lat":34.9713237,"lon":138.3929615}},{"title":"静岡市立東豊田小学校","address":"静岡市駿河区池田 491 番地の 2","description": "TEL: 054-262-1191","location":{"lat":34.9840453,"lon":138.4234668}},{"title":"静岡市立西豊田小学校","address":"静岡市駿河区曲金二丁目 8 番 80 号","description": "TEL: 054-285-9165","location":{"lat":34.9783678,"lon":138.4073545}},{"title":"静岡市立富士見小学校","address":"静岡市駿河区登呂一丁目 1 番 1 号","description": "TEL: 054-286-3165","location":{"lat":34.960642,"lon":138.4099187}},{"title":"静岡市立南部小学校","address":"静岡市駿河区南八幡町 11 番 1 号","description": "TEL: 054-286-8019","location":{"lat":34.9624111,"lon":138.4031109}},{"title":"静岡市立東源台小学校","address":"静岡市駿河区国吉田六丁目 7 番 45 号054-265-2500","location":{"lat":34.9891422,"lon":138.4376823}},{"title":"静岡市立長田西小学校","address":"静岡市駿河区丸子六丁目 15 番 65 号","description": "TEL: 054-259-8256","location":{"lat":34.9462987,"lon":138.3504078}},{"title":"静岡市立長田南小学校","address":"静岡市駿河区広野四丁目 7 番 1 号","description": "TEL: 054-259-6133","location":{"lat":34.9277258,"lon":138.3693593}},{"title":"静岡市立長田東小学校","address":"静岡市駿河区東新田三丁目 10 番 1 号054-259-7516","location":{"lat":34.9460377,"lon":138.3726836}},{"title":"静岡市立長田北小学校","address":"静岡市駿河区向敷地 890 番地","description": "TEL: 054-258-2997","location":{"lat":34.9623775,"lon":138.3586732}},{"title":"静岡市立川原小学校","address":"静岡市駿河区下川原四丁目 14 番 1 号054-259-5911","location":{"lat":34.9372166,"lon":138.3830051}},{"title":"静岡市立清水入江小学校","address":"静岡市清水区追分二丁目 3 番 1 号","description": "TEL: 054-366-6210","location":{"lat":35.0145627,"lon":138.47424}},{"title":"静岡市立清水浜田小学校","address":"静岡市清水区浜田町 11 番 1 号","description": "TEL: 054-353-6135","location":{"lat":35.0131548,"lon":138.4829921}},{"title":"静岡市立清水岡小学校","address":"静岡市清水区神田町 4 番 3 号","description": "TEL: 054-353-3368","location":{"lat":35.0076359,"lon":138.4807341}},{"title":"静岡市立清水船越小学校","address":"静岡市清水区北矢部 831 番地の 1","description": "TEL: 054-351-1804","location":{"lat":34.997195,"lon":138.4712991}},{"title":"静岡市立清水有度第一小学校","address":"静岡市清水区有度本町 3 番 1 号","description": "TEL: 054-345-0511","location":{"lat":35.0069824,"lon":138.4531977}},{"title":"静岡市立清水有度第二小学校","address":"静岡市清水区草薙杉道三丁目 19 番 1号","description": "TEL: 054-345-2391","location":{"lat":35.0012468,"lon":138.4507535}},{"title":"静岡市立清水小学校","address":"静岡市清水区松井町 15 番 1 号","description": "TEL: 054-353-3341","location":{"lat":35.00297279999999,"lon":138.4908499}},{"title":"静岡市立清水不二見小学校","address":"静岡市清水区新緑町 2 番 21 号","description": "TEL: 054-334-2510","location":{"lat":34.9954568,"lon":138.4891254}},{"title":"静岡市立清水駒越小学校","address":"静岡市清水区駒越東町 2 番 20 号","description": "TEL: 054-334-2331","location":{"lat":34.9818691,"lon":138.5018523}},{"title":"静岡市立清水三保第一小学校","address":"静岡市清水区三保 1069 番地の 1","description": "TEL: 054-334-0721","location":{"lat":35.0010535,"lon":138.522188}},{"title":"静岡市立清水三保第二小学校","address":"静岡市清水区折戸五丁目 8 番 2 号","description": "TEL: 054-334-6364","location":{"lat":34.9908906,"lon":138.5165253}},{"title":"静岡市立清水辻小学校","address":"静岡市清水区辻四丁目 3 番 40 号","description": "TEL: 054-365-5910","location":{"lat":35.02699760000001,"lon":138.4848526}},{"title":"静岡市立清水江尻小学校","address":"静岡市清水区江尻町 14 番 63 号","description": "TEL: 054-366-6010","location":{"lat":35.0211704,"lon":138.4799699}},{"title":"静岡市立清水飯田小学校","address":"静岡市清水区下野中 2 番 40 号","description": "TEL: 054-366-6091","location":{"lat":35.0354072,"lon":138.4692149}},{"title":"静岡市立清水飯田東小学校","address":"静岡市清水区八坂北一丁目 23 番 40号","description": "TEL: 054-365-1444","location":{"lat":35.03499350000001,"lon":138.4730145}},{"title":"静岡市立清水高部小学校","address":"静岡市清水区押切 1115 番地の 2","description": "TEL: 054-345-7010","location":{"lat":35.0295435,"lon":138.4499279}},{"title":"静岡市立清水高部東小学校","address":"静岡市清水区押切 1907 番地","description": "TEL: 054-347-2861","location":{"lat":35.034793,"lon":138.4561994}},{"title":"静岡市立清水袖師小学校","address":"静岡市清水区袖師町 420 番地","description": "TEL: 054-366-7310","location":{"lat":35.0351995,"lon":138.4891992}},{"title":"静岡市立清水庵原小学校","address":"静岡市清水区庵原町 1723 番地","description": "TEL: 054-365-3824","location":{"lat":35.0518804,"lon":138.4752169}},{"title":"静岡市立清水興津小学校","address":"静岡市清水区興津中町 350 番地の 1","description": "TEL: 054-369-0185","location":{"lat":35.0548583,"lon":138.5259341}},{"title":"静岡市立清水小島小学校","address":"静岡市清水区小島町 619 番地","description": "TEL: 054-393-2014","location":{"lat":35.0918953,"lon":138.5151726}},{"title":"静岡市立清水小河内小学校","address":"静岡市清水区小河内 2723 番地","description": "TEL: 054-393-2044","location":{"lat":35.120958,"lon":138.5114998}},{"title":"静岡市立清水宍原小学校","address":"静岡市清水区宍原 919 番地","description": "TEL: 054-394-0341","location":{"lat":35.1599612,"lon":138.5185565}},{"title":"静岡市立清水中河内小学校","address":"静岡市清水区中河内 2583 番地の 1","description": "TEL: 054-395-2241","location":{"lat":35.1370663,"lon":138.4707349}},{"title":"静岡市立清水西河内小学校","address":"静岡市清水区西里 143 番地","description": "TEL: 054-395-2041","location":{"lat":35.1217955,"lon":138.4435156}},{"title":"静岡市立清水和田島小学校","address":"静岡市清水区和田島 611 番地","description": "TEL: 054-395-2031","location":{"lat":35.1086174,"lon":138.4806404}},{"title":"静岡市立蒲原東小学校","address":"静岡市清水区蒲原 666 番地","description": "TEL: 054-385-4155","location":{"lat":35.1170243,"lon":138.6090195}},{"title":"静岡市立蒲原西小学校","address":"静岡市清水区蒲原新田二丁目 25 番 1号","description": "TEL: 054-385-4125","location":{"lat":35.11906,"lon":138.5952179}},{"title":"静岡市立由比小学校","address":"静岡市清水区由比町屋原 329 番地","description": "TEL: 054-375-2074","location":{"lat":35.1082951,"lon":138.5576241}},{"title":"静岡市立由比北小学校","address":"静岡市清水区由比入山 2158 番地","description": "TEL: 054-375-3047","location":{"lat":35.1293109,"lon":138.556677}}]
