[{"title":"静岡大学教育学部附属","address":"葵区大岩町1-10","description":"TEL: 245-1191","location":{"lat":34.9913406,"lon":138.3794399}},{"title":"かえで","address":"葵区井宮町207","description":"TEL: 271-0525","location":{"lat":34.9874467,"lon":138.3715685}},{"title":"桜　花","address":"葵区馬場町77","description":"TEL: 253-1108","location":{"lat":34.9787699,"lon":138.3763517}},{"title":"静岡田町","address":"葵区田町四丁目67-3","description":"TEL: 251-3115","location":{"lat":34.9691739,"lon":138.366089}},{"title":"こまどり","address":"葵区駒形通四丁目13-20","description":"TEL: 252-5981","location":{"lat":34.9655354,"lon":138.3770215}},{"title":"リリー","address":"葵区昭府二丁目18-20","description":"TEL: 271-8044","location":{"lat":35.0031726,"lon":138.3677712}},{"title":"静岡平和","address":"葵区平和二丁目23-22","description":"TEL: 271-3016","location":{"lat":34.9934987,"lon":138.3672271}},{"title":"第一ひかり","address":"葵区与一五丁目3-25","description":"TEL: 271-5700","location":{"lat":35.0125825,"lon":138.3564194}},{"title":"丸　子","address":"駿河区丸子六丁目7-3","description":"TEL: 259-3491","location":{"lat":34.9490677,"lon":138.3462415}},{"title":"る　り","address":"駿河区向敷地11","description":"TEL: 259-6779","location":{"lat":34.9540368,"lon":138.3630759}},{"title":"羽鳥るり","address":"葵区羽鳥本町1-1","description":"TEL: 278-2355","location":{"lat":34.9821522,"lon":138.3333117}},{"title":"わらべ","address":"葵区千代一丁目4-15","description":"TEL: 278-1505","location":{"lat":34.9806474,"lon":138.3522039}},{"title":"かわはらいづみ","address":"駿河区みずほ一丁目12-15","description":"TEL: 259-9609","location":{"lat":34.9441574,"lon":138.368334}},{"title":"梨　花","address":"駿河区下川原二丁目33-15","description":"TEL: 258-9118","location":{"lat":34.9375693,"lon":138.3761307}},{"title":"若　杉","address":"駿河区丸子3653","description":"TEL: 259-3125","location":{"lat":34.9406189,"lon":138.3529716}},{"title":"静岡聖母","address":"葵区城内町1-2","description":"TEL: 253-1220","location":{"lat":34.9817196,"lon":138.381104}},{"title":"てるみ","address":"葵区大岩町12-37","description":"TEL: 246-7547","location":{"lat":34.9910518,"lon":138.3762986}},{"title":"麻　機","address":"葵区南1540-10","description":"TEL: 245-5777","location":{"lat":35.0242173,"lon":138.3898775}},{"title":"常葉大学短期大学部附属とこは","address":"葵区城北37","description":"TEL: 246-3712","location":{"lat":35.0003481,"lon":138.3946883}},{"title":"常葉大学短期大学部附属たちばな","address":"葵区瀬名一丁目1-17","description":"TEL: 261-1746","location":{"lat":35.0109253,"lon":138.4178611}},{"title":"千代田","address":"葵区東千代田一丁目8-10","description":"TEL: 261-7624","location":{"lat":35.0007263,"lon":138.409262}},{"title":"静岡聖光","address":"駿河区馬渕三丁目15-26","description":"TEL: 285-0667","location":{"lat":34.9645466,"lon":138.3875372}},{"title":"静岡若葉","address":"駿河区中田三丁目7-2","description":"TEL: 285-2326","location":{"lat":34.9606945,"lon":138.3967282}},{"title":"南八幡","address":"駿河区南八幡町3-6","description":"TEL: 285-0529","location":{"lat":34.9623889,"lon":138.401686}},{"title":"やよい","address":"駿河区石田二丁目18-28","description":"TEL: 285-8011","location":{"lat":34.9572284,"lon":138.4048831}},{"title":"静岡南","address":"駿河区中田本町30-1","description":"TEL: 286-1919","location":{"lat":34.957317,"lon":138.3920121}},{"title":"大里東","address":"駿河区高松2526-2","description":"TEL: 237-3711","location":{"lat":34.9472045,"lon":138.4157963}},{"title":"横　内","address":"葵区横内町103-1","description":"TEL: 245-1133","location":{"lat":34.9843443,"lon":138.3913058}},{"title":"静岡豊田","address":"駿河区曲金二丁目5-21","description":"TEL: 283-2258","location":{"lat":34.9774817,"lon":138.4050742}},{"title":"八幡聖母","address":"駿河区八幡四丁目10-14","description":"TEL: 285-1420","location":{"lat":34.968677,"lon":138.3996527}},{"title":"静岡精華","address":"葵区鷹匠三丁目11-24","description":"TEL: 252-7300","location":{"lat":34.9790172,"lon":138.3893533}},{"title":"静岡学園","address":"駿河区聖一色400","description":"TEL: 262-0191","location":{"lat":34.9871478,"lon":138.4269831}},{"title":"さくら","address":"清水区入江南町15-19","description":"TEL: 366-2562","location":{"lat":35.0157154,"lon":138.4769425}},{"title":"船　原","address":"清水区船原一丁目348-12","description":"TEL: 345-5384","location":{"lat":35.0073411,"lon":138.4683158}},{"title":"静岡サレジオ","address":"清水区中之郷三丁目2-1","description":"TEL: 345-2553","location":{"lat":35.00239639999999,"lon":138.4389181}},{"title":"梅　花","address":"清水区南岡町3-8","description":"TEL: 353-1342","location":{"lat":35.0056113,"lon":138.4866309}},{"title":"江　尻","address":"清水区二の丸町2-7","description":"TEL: 366-1016","location":{"lat":35.0234173,"lon":138.4799837}},{"title":"東　海","address":"清水区興津本町78","description":"TEL: 369-1311","location":{"lat":35.0474952,"lon":138.5168408}},{"title":"日本平","address":"清水区村松3834","description":"TEL: 334-5281","location":{"lat":34.9857991,"lon":138.4807041}},{"title":"有　度","address":"清水区草薙一里山1-11","description":"TEL: 345-8955","location":{"lat":35.00696569999999,"lon":138.451595}},{"title":"八　坂","address":"清水区八坂東二丁目4-28","description":"TEL: 366-1668","location":{"lat":35.0341049,"lon":138.4778169}},{"title":"東　光","address":"清水区蒲原2-13-3","description":"TEL: 385-5360","location":{"lat":35.1212877,"lon":138.6078196}},{"title":"蒲原聖母","address":"清水区蒲原神沢135","description":"TEL: 385-3319","location":{"lat":35.1129607,"lon":138.5779917}}]